{"type":"FeatureCollection","crs":{"type":"name","properties":{"name":"EPSG:3857"}},"features":[{"type":"Feature","id":1,"geometry":{"type":"Point","coordinates":[-8349279.24041265,5293805.96022925]},"properties":{"OBJECTID":1,"Name":"Andela Products (CRT GLASS)","TELEPHONE":"(607) 435-0276","Email":" ","Website":" ","NAICS_Code":562920,"Infra_Type":"Glass Secondary Processors","Feedstock":"Glass","Street":"493 State Route 28","City":"Richfield Springs","State":"NY","Zip_Code":"13439"}},{"type":"Feature","id":2,"geometry":{"type":"Point","coordinates":[-8857433.9327163,4904718.57488203]},"properties":{"OBJECTID":2,"Name":"Bradish Glass","TELEPHONE":"(724) 837-5100","Email":" ","Website":" ","NAICS_Code":562920,"Infra_Type":"Glass Secondary Processors","Feedstock":"Glass","Street":"444 Willow Crossing Road","City":"Greensburg","State":"PA","Zip_Code":"15601"}},{"type":"Feature","id":3,"geometry":{"type":"Point","coordinates":[-8467328.04763726,4958907.65340596]},"properties":{"OBJECTID":3,"Name":"Carry All Products (CAP) / EWG","TELEPHONE":"(570) 366-0950","Email":" ","Website":" ","NAICS_Code":562920,"Infra_Type":"Glass Secondary Processors","Feedstock":"Glass","Street":"49 Pinedale Industrial Road","City":"Orwigsburg","State":"PA","Zip_Code":"17961"}},{"type":"Feature","id":4,"geometry":{"type":"Point","coordinates":[-8402935.84158123,4966780.37476892]},"properties":{"OBJECTID":4,"Name":"Carry all Products (CAP) Glass","TELEPHONE":"(724) 547-4550","Email":" ","Website":" ","NAICS_Code":562920,"Infra_Type":"Glass Secondary Processors","Feedstock":"Glass","Street":"799 Smith Lane","City":"Northampton","State":"PA","Zip_Code":"18067"}},{"type":"Feature","id":5,"geometry":{"type":"Point","coordinates":[-8859563.71965845,4868723.31529406]},"properties":{"OBJECTID":5,"Name":"Carry all Products (CAP) Glass","TELEPHONE":"(724) 547-4550","Email":" ","Website":" ","NAICS_Code":562920,"Infra_Type":"Glass Secondary Processors","Feedstock":"Glass","Street":"P.O. Box 201","City":"Connellsville","State":"PA","Zip_Code":"15425"}},{"type":"Feature","id":6,"geometry":{"type":"Point","coordinates":[-11685634.9740745,4836751.43507126]},"properties":{"OBJECTID":6,"Name":"Clear Intentions","TELEPHONE":"(303) 993-8221","Email":" ","Website":" ","NAICS_Code":562920,"Infra_Type":"Glass Secondary Processors","Feedstock":"Glass","Street":"5601 Downing Street","City":"Denver","State":"CO","Zip_Code":"80216"}},{"type":"Feature","id":7,"geometry":{"type":"Point","coordinates":[-9449469.0760633,4583934.03901117]},"properties":{"OBJECTID":7,"Name":"Dlubak Glass Kentucky","TELEPHONE":"(502) 839-9116","Email":" ","Website":" ","NAICS_Code":562920,"Infra_Type":"Glass Secondary Processors","Feedstock":"Glass","Street":"1052 Industry Drive","City":"Lawrenceburg","State":"KY","Zip_Code":"40342"}},{"type":"Feature","id":8,"geometry":{"type":"Point","coordinates":[-9273243.75919845,4986641.19405239]},"properties":{"OBJECTID":8,"Name":"Dlubak Glass Ohio","TELEPHONE":"(419) 294-4466","Email":" ","Website":" ","NAICS_Code":562920,"Infra_Type":"Glass Secondary Processors","Feedstock":"Glass","Street":"11567 County Highway 110","City":"Upper Sandusky","State":"OH","Zip_Code":"43351"}},{"type":"Feature","id":9,"geometry":{"type":"Point","coordinates":[-10683765.6774446,4249171.26969891]},"properties":{"OBJECTID":9,"Name":"Dlubak Glass Oklahoma","TELEPHONE":"(918) 752-0226","Email":" ","Website":" ","NAICS_Code":562920,"Infra_Type":"Glass Secondary Processors","Feedstock":"Glass","Street":"PO Box 459","City":"Okmulgee","State":"OK","Zip_Code":"74447"}},{"type":"Feature","id":10,"geometry":{"type":"Point","coordinates":[-8875232.49458507,4956293.1752818]},"properties":{"OBJECTID":10,"Name":"Dlubak Glass Pennsylvania","TELEPHONE":"(724) 224-6611","Email":" ","Website":" ","NAICS_Code":562920,"Infra_Type":"Glass Secondary Processors","Feedstock":"Glass","Street":"PO Box 276","City":"Natrona Heights","State":"PA","Zip_Code":"15065"}},{"type":"Feature","id":11,"geometry":{"type":"Point","coordinates":[-10780301.8316508,3822413.89554986]},"properties":{"OBJECTID":11,"Name":"Dlubak Glass Texas","TELEPHONE":"(972) 938-0865","Email":" ","Website":" ","NAICS_Code":562920,"Infra_Type":"Glass Secondary Processors","Feedstock":"Glass","Street":"400 Mushroom Road","City":"Waxahachie","State":"TX","Zip_Code":"75165"}},{"type":"Feature","id":12,"geometry":{"type":"Point","coordinates":[-8215344.35166805,4968214.26801682]},"properties":{"OBJECTID":12,"Name":"EWG Glass Recovery","TELEPHONE":"(718) 739-7270","Email":" ","Website":" ","NAICS_Code":562920,"Infra_Type":"Glass Secondary Processors","Feedstock":"Glass","Street":"9454 158th Street","City":"Jamaica","State":"NY","Zip_Code":"11433"}},{"type":"Feature","id":13,"geometry":{"type":"Point","coordinates":[-13656236.4193218,5713852.42730748]},"properties":{"OBJECTID":13,"Name":"Glass to Glass, Inc.","TELEPHONE":"(971) 645-4801","Email":" ","Website":" ","NAICS_Code":562920,"Infra_Type":"Glass Secondary Processors","Feedstock":"Glass","Street":"866 N. Columbia Blvd.","City":"Portland","State":"OR","Zip_Code":"97217"}},{"type":"Feature","id":14,"geometry":{"type":"Point","coordinates":[-8418902.68434015,5079074.07447739]},"properties":{"OBJECTID":14,"Name":"Lackawanna County Recycling Center","TELEPHONE":"(570) 963-6868","Email":" ","Website":" ","NAICS_Code":562920,"Infra_Type":"Glass Secondary Processors","Feedstock":"Glass","Street":"3400 Boulevard Avenue","City":"Dunmore","State":"PA","Zip_Code":"15601"}},{"type":"Feature","id":15,"geometry":{"type":"Point","coordinates":[-10766255.7532494,4984199.45276604]},"properties":{"OBJECTID":15,"Name":"Midland Recycling","TELEPHONE":"(402) 476-8502","Email":" ","Website":" ","NAICS_Code":562920,"Infra_Type":"Glass Secondary Processors","Feedstock":"Glass","Street":"440 J Street","City":"Lincoln","State":"NE","Zip_Code":"68508"}},{"type":"Feature","id":16,"geometry":{"type":"Point","coordinates":[-11698255.0428276,4859692.41061508]},"properties":{"OBJECTID":16,"Name":"Momentum Recycling","TELEPHONE":" ","Email":" ","Website":" ","NAICS_Code":562920,"Infra_Type":"Glass Secondary Processors","Feedstock":"Glass","Street":"11331 W Dillon Road","City":"Broomfield","State":"CO","Zip_Code":"80020"}},{"type":"Feature","id":17,"geometry":{"type":"Point","coordinates":[-8244932.30236398,4970870.39542392]},"properties":{"OBJECTID":17,"Name":"Pace Glass Recycling","TELEPHONE":"(201) 432-7983","Email":" ","Website":" ","NAICS_Code":562920,"Infra_Type":"Glass Secondary Processors","Feedstock":"Glass","Street":"88-94 Bishop Street","City":"Jersey City","State":"NJ","Zip_Code":"07304"}},{"type":"Feature","id":18,"geometry":{"type":"Point","coordinates":[-8713485.2770047,5130668.64344476]},"properties":{"OBJECTID":18,"Name":"RecycALL, Inc. (Randy Hobbs, President)","TELEPHONE":"(814) 642-5057","Email":" ","Website":" ","NAICS_Code":562920,"Infra_Type":"Glass Secondary Processors","Feedstock":"Glass","Street":"4832 Route 155","City":"Port Allegany","State":"PA","Zip_Code":"16743"}},{"type":"Feature","id":19,"geometry":{"type":"Point","coordinates":[-9103594.24162005,4151857.20923087]},"properties":{"OBJECTID":19,"Name":"Reflective Recycling of South Carolina","TELEPHONE":"(864) 474-9650","Email":" ","Website":" ","NAICS_Code":562920,"Infra_Type":"Glass Secondary Processors","Feedstock":"Glass","Street":"502 Calico Drive","City":"Pacolet","State":"SC","Zip_Code":"29372"}},{"type":"Feature","id":20,"geometry":{"type":"Point","coordinates":[-10519475.0283856,4734676.0666639]},"properties":{"OBJECTID":20,"Name":"Ripple Glass","TELEPHONE":"(816) 221-4527","Email":" ","Website":" ","NAICS_Code":562920,"Infra_Type":"Glass Secondary Processors","Feedstock":"Glass","Street":"1642 Crystal Avenue","City":"Kansas City","State":"MO","Zip_Code":"64126"}},{"type":"Feature","id":21,"geometry":{"type":"Point","coordinates":[-11701560.0019026,4835398.23668817]},"properties":{"OBJECTID":21,"Name":"Rocky Mountain Bottle Company","TELEPHONE":"(303) 425-7919","Email":" ","Website":" ","NAICS_Code":562920,"Infra_Type":"Glass Secondary Processors","Feedstock":"Glass","Street":"10619 West 50th Avenue","City":"Wheatridge","State":"CO","Zip_Code":"80033"}},{"type":"Feature","id":22,"geometry":{"type":"Point","coordinates":[-9171646.35131422,4874350.72583451]},"properties":{"OBJECTID":22,"Name":"Strategic Materials, Inc.","TELEPHONE":"(740) 349-9523","Email":" ","Website":" ","NAICS_Code":562920,"Infra_Type":"Glass Secondary Processors","Feedstock":"Glass","Street":"101 South Arch Street","City":"Newark","State":"OH","Zip_Code":"43055"}},{"type":"Feature","id":23,"geometry":{"type":"Point","coordinates":[-9431146.38296648,4588634.92112101]},"properties":{"OBJECTID":23,"Name":"Strategic Materials, Inc.","TELEPHONE":" ","Email":" ","Website":" ","NAICS_Code":562920,"Infra_Type":"Glass Secondary Processors","Feedstock":"Glass","Street":"102 Kuhlman Blvd","City":"Versailles","State":"KY","Zip_Code":"40383"}},{"type":"Feature","id":24,"geometry":{"type":"Point","coordinates":[-9751094.02189573,5117200.59778993]},"properties":{"OBJECTID":24,"Name":"Strategic Materials, Inc.","TELEPHONE":"(773) 995-9850","Email":" ","Website":" ","NAICS_Code":562920,"Infra_Type":"Glass Secondary Processors","Feedstock":"Glass","Street":"10330 S. Woodlawn Avenue","City":"Chicago","State":"IL","Zip_Code":"60628"}},{"type":"Feature","id":25,"geometry":{"type":"Point","coordinates":[-9687574.23553551,4332372.89270238]},"properties":{"OBJECTID":25,"Name":"Strategic Materials, Inc.","TELEPHONE":"(615) 792-5097","Email":" ","Website":" ","NAICS_Code":562920,"Infra_Type":"Glass Secondary Processors","Feedstock":"Glass","Street":"1035 Thompson Road Industrial Park","City":"Ashland City","State":"TN","Zip_Code":"37015"}},{"type":"Feature","id":26,"geometry":{"type":"Point","coordinates":[-9484020.531988,4920145.70795365]},"properties":{"OBJECTID":26,"Name":"Strategic Materials, Inc.","TELEPHONE":"(765) 330-1098","Email":" ","Website":" ","NAICS_Code":562920,"Infra_Type":"Glass Secondary Processors","Feedstock":"Glass","Street":"11365 W 450 S","City":"Dunkirk","State":"IN","Zip_Code":"47336"}},{"type":"Feature","id":27,"geometry":{"type":"Point","coordinates":[-13369935.604757,4428844.35953766]},"properties":{"OBJECTID":27,"Name":"Strategic Materials, Inc.","TELEPHONE":"(559) 675-8781","Email":" ","Website":" ","NAICS_Code":562920,"Infra_Type":"Glass Secondary Processors","Feedstock":"Glass","Street":"12200 Road 24 1/2","City":"Madera","State":"CA","Zip_Code":"93637"}},{"type":"Feature","id":28,"geometry":{"type":"Point","coordinates":[-9375123.16552585,4823333.02587367]},"properties":{"OBJECTID":28,"Name":"Strategic Materials, Inc.","TELEPHONE":" ","Email":" ","Website":" ","NAICS_Code":562920,"Infra_Type":"Glass Secondary Processors","Feedstock":"Glass","Street":"1250 Northlawn Ave","City":"Moraine","State":"OH","Zip_Code":"45439"}},{"type":"Feature","id":29,"geometry":{"type":"Point","coordinates":[-9864172.80806978,5257133.70517244]},"properties":{"OBJECTID":29,"Name":"Strategic Materials, Inc.","TELEPHONE":"(262) 642-4711","Email":" ","Website":" ","NAICS_Code":562920,"Infra_Type":"Glass Secondary Processors","Feedstock":"Glass","Street":"1849 Hobbs Drive","City":"Delavan","State":"WI","Zip_Code":"53115"}},{"type":"Feature","id":30,"geometry":{"type":"Point","coordinates":[-10363053.6666075,5615766.43872825]},"properties":{"OBJECTID":30,"Name":"Strategic Materials, Inc.","TELEPHONE":"(651) 224-5700","Email":" ","Website":" ","NAICS_Code":562920,"Infra_Type":"Glass Secondary Processors","Feedstock":"Glass","Street":"195 Minniehaha Ave E","City":"St. Paul","State":"MN","Zip_Code":"55130"}},{"type":"Feature","id":31,"geometry":{"type":"Point","coordinates":[-9505953.25944616,4933195.38264862]},"properties":{"OBJECTID":31,"Name":"Strategic Materials, Inc.","TELEPHONE":"(765) 330-1098","Email":" ","Website":" ","NAICS_Code":562920,"Infra_Type":"Glass Secondary Processors","Feedstock":"Glass","Street":"2001 Renner Drive","City":"Hartford City","State":"IN","Zip_Code":"47348"}},{"type":"Feature","id":32,"geometry":{"type":"Point","coordinates":[-9408303.12695075,3987274.24418406]},"properties":{"OBJECTID":32,"Name":"Strategic Materials, Inc.","TELEPHONE":"(404) 629-2186","Email":" ","Website":" ","NAICS_Code":562920,"Infra_Type":"Glass Secondary Processors","Feedstock":"Glass","Street":"2350 Daniel Road","City":"Atlanta","State":"GA","Zip_Code":"30331"}},{"type":"Feature","id":33,"geometry":{"type":"Point","coordinates":[-10039623.9014407,4672632.66217947]},"properties":{"OBJECTID":33,"Name":"Strategic Materials, Inc.","TELEPHONE":"(314) 421-2127","Email":" ","Website":" ","NAICS_Code":562920,"Infra_Type":"Glass Secondary Processors","Feedstock":"Glass","Street":"24 Branch Street","City":"Saint Louis","State":"MO","Zip_Code":"63147"}},{"type":"Feature","id":34,"geometry":{"type":"Point","coordinates":[-9596140.07937663,4828816.72451692]},"properties":{"OBJECTID":34,"Name":"Strategic Materials, Inc.","TELEPHONE":"(317) 484-2550","Email":" ","Website":" ","NAICS_Code":562920,"Infra_Type":"Glass Secondary Processors","Feedstock":"Glass","Street":"2550 West Minnesota Avenue","City":"Indianapolis","State":"IN","Zip_Code":"46241"}},{"type":"Feature","id":35,"geometry":{"type":"Point","coordinates":[-13462892.2779108,4527893.40427066]},"properties":{"OBJECTID":35,"Name":"Strategic Materials, Inc.","TELEPHONE":"(510) 357-0531","Email":" ","Website":" ","NAICS_Code":562920,"Infra_Type":"Glass Secondary Processors","Feedstock":"Glass","Street":"2960 Farrar Ave","City":"Modesto","State":"CA","Zip_Code":"95354"}},{"type":"Feature","id":36,"geometry":{"type":"Point","coordinates":[-13588511.86861,4612345.77271104]},"properties":{"OBJECTID":36,"Name":"Strategic Materials, Inc.","TELEPHONE":"(510) 357-0520","Email":" ","Website":" ","NAICS_Code":562920,"Infra_Type":"Glass Secondary Processors","Feedstock":"Glass","Street":"299 Beck Avenue","City":"Fairfield","State":"CA","Zip_Code":"94533"}},{"type":"Feature","id":37,"geometry":{"type":"Point","coordinates":[-9550110.46977089,4800207.70629744]},"properties":{"OBJECTID":37,"Name":"Strategic Materials, Inc.","TELEPHONE":" ","Email":" ","Website":" ","NAICS_Code":562920,"Infra_Type":"Glass Secondary Processors","Feedstock":"Glass","Street":"300 Northridge Drive","City":"Shelbyville","State":"IN","Zip_Code":"46176"}},{"type":"Feature","id":38,"geometry":{"type":"Point","coordinates":[-8079849.5205232,5139788.70768835]},"properties":{"OBJECTID":38,"Name":"Strategic Materials, Inc.","TELEPHONE":"(860) 289-8480","Email":" ","Website":" ","NAICS_Code":562920,"Infra_Type":"Glass Secondary Processors","Feedstock":"Glass","Street":"300 Rye Street","City":"South Windsor","State":"CT","Zip_Code":"06074"}},{"type":"Feature","id":39,"geometry":{"type":"Point","coordinates":[-12478848.9080133,3954435.2145027]},"properties":{"OBJECTID":39,"Name":"Strategic Materials, Inc.","TELEPHONE":"(602) 253-6677","Email":" ","Website":" ","NAICS_Code":562920,"Infra_Type":"Glass Secondary Processors","Feedstock":"Glass","Street":"301 S. 19th Avenue","City":"Phoenix","State":"AZ","Zip_Code":"85009"}},{"type":"Feature","id":40,"geometry":{"type":"Point","coordinates":[-13159620.3529837,4030667.39975772]},"properties":{"OBJECTID":40,"Name":"Strategic Materials, Inc.","TELEPHONE":"(323) 415-0166","Email":" ","Website":" ","NAICS_Code":562920,"Infra_Type":"Glass Secondary Processors","Feedstock":"Glass","Street":"3211 E. 26th Street","City":"Vernon","State":"CA","Zip_Code":"90023"}},{"type":"Feature","id":41,"geometry":{"type":"Point","coordinates":[-10792862.6785022,3825225.8816582]},"properties":{"OBJECTID":41,"Name":"Strategic Materials, Inc.","TELEPHONE":"(972) 723-2422","Email":" ","Website":" ","NAICS_Code":562920,"Infra_Type":"Glass Secondary Processors","Feedstock":"Glass","Street":"3240 Robinson Road","City":"Midlothian","State":"TX","Zip_Code":"76065"}},{"type":"Feature","id":42,"geometry":{"type":"Point","coordinates":[-9468884.09058747,5090811.96193394]},"properties":{"OBJECTID":42,"Name":"Strategic Materials, Inc.","TELEPHONE":"(260) 587-3000","Email":" ","Website":" ","NAICS_Code":562920,"Infra_Type":"Glass Secondary Processors","Feedstock":"Glass","Street":"407 E. Garfield","City":"Ashley","State":"IN","Zip_Code":"46705"}},{"type":"Feature","id":43,"geometry":{"type":"Point","coordinates":[-8934320.99590149,4323108.73386946]},"properties":{"OBJECTID":43,"Name":"Strategic Materials, Inc.","TELEPHONE":"(336) 251-1025","Email":" ","Website":" ","NAICS_Code":562920,"Infra_Type":"Glass Secondary Processors","Feedstock":"Glass","Street":"4140 Patterson Avenue","City":"Winston Salem","State":"NC","Zip_Code":"27105"}},{"type":"Feature","id":44,"geometry":{"type":"Point","coordinates":[-12812167.5177745,4335044.40456952]},"properties":{"OBJECTID":44,"Name":"Strategic Materials, Inc.","TELEPHONE":"(702) 643-6001","Email":" ","Website":" ","NAICS_Code":562920,"Infra_Type":"Glass Secondary Processors","Feedstock":"Glass","Street":"4910 Donovan Way Suite R","City":"North Las Vegas","State":"NV","Zip_Code":"89081"}},{"type":"Feature","id":45,"geometry":{"type":"Point","coordinates":[-8778066.71882384,4300354.02145254]},"properties":{"OBJECTID":45,"Name":"Strategic Materials, Inc.","TELEPHONE":"(919) 956-8853","Email":" ","Website":" ","NAICS_Code":562920,"Infra_Type":"Glass Secondary Processors","Feedstock":"Glass","Street":"503 Junction Road","City":"Durham","State":"NC","Zip_Code":"27703"}},{"type":"Feature","id":46,"geometry":{"type":"Point","coordinates":[-13618518.8140272,6032584.89338488]},"properties":{"OBJECTID":46,"Name":"Strategic Materials, Inc.","TELEPHONE":"(206) 762-3169","Email":" ","Website":" ","NAICS_Code":562920,"Infra_Type":"Glass Secondary Processors","Feedstock":"Glass","Street":"5801 E. Marginal Way S","City":"Seattle","State":"WA","Zip_Code":"98134"}},{"type":"Feature","id":47,"geometry":{"type":"Point","coordinates":[-13511582.8608956,4653360.79743692]},"properties":{"OBJECTID":47,"Name":"Strategic Materials, Inc.","TELEPHONE":"(916) 388-1076","Email":" ","Website":" ","NAICS_Code":562920,"Infra_Type":"Glass Secondary Processors","Feedstock":"Glass","Street":"5850 88th Street","City":"Sacramento","State":"CA","Zip_Code":"95828"}},{"type":"Feature","id":48,"geometry":{"type":"Point","coordinates":[-9188490.65838487,3176947.25907247]},"properties":{"OBJECTID":48,"Name":"Strategic Materials, Inc.","TELEPHONE":"(941) 758-7773","Email":" ","Website":" ","NAICS_Code":562920,"Infra_Type":"Glass Secondary Processors","Feedstock":"Glass","Street":"6420 19th Street E","City":"Sarasota","State":"FL","Zip_Code":"34243"}},{"type":"Feature","id":49,"geometry":{"type":"Point","coordinates":[-13150873.2341783,4026875.95550859]},"properties":{"OBJECTID":49,"Name":"Strategic Materials, Inc.","TELEPHONE":"(323) 887-6831","Email":" ","Website":" ","NAICS_Code":562920,"Infra_Type":"Glass Secondary Processors","Feedstock":"Glass","Street":"7000 Bandini Blvd","City":"Commerce","State":"CA","Zip_Code":"90040"}},{"type":"Feature","id":50,"geometry":{"type":"Point","coordinates":[-10618512.4201656,3462438.58528758]},"properties":{"OBJECTID":50,"Name":"Strategic Materials, Inc.","TELEPHONE":"(713) 795-9800","Email":" ","Website":" ","NAICS_Code":562920,"Infra_Type":"Glass Secondary Processors","Feedstock":"Glass","Street":"825 S Loop W Warehouse C","City":"Houston","State":"TX","Zip_Code":"77054"}},{"type":"Feature","id":51,"geometry":{"type":"Point","coordinates":[-9405285.36657348,3978100.47776601]},"properties":{"OBJECTID":51,"Name":"Strategic Materials, Inc. \"College Park Plant\"","TELEPHONE":"(404) 761-1340","Email":" ","Website":" ","NAICS_Code":562920,"Infra_Type":"Glass Secondary Processors","Feedstock":"Glass","Street":"3050 Roosevelt Highway","City":"College Park","State":"GA","Zip_Code":"30349"}},{"type":"Feature","id":52,"geometry":{"type":"Point","coordinates":[-8610435.9116298,5310930.52613817]},"properties":{"OBJECTID":52,"Name":"TOMRA New York Recycling","TELEPHONE":"(585) 742-3790","Email":" ","Website":" ","NAICS_Code":562920,"Infra_Type":"Glass Secondary Processors","Feedstock":"Glass","Street":"5923 Loomis Road","City":"Farmington","State":"NY","Zip_Code":"14425"}}]}