{"type":"FeatureCollection","crs":{"type":"name","properties":{"name":"EPSG:3857"}},"features":[{"type":"Feature","id":1,"geometry":{"type":"Point","coordinates":[-8252485.09137139,4978060.92859969]},"properties":{"OBJECTID":1,"Name":"ABCA Recycling","TELEPHONE":"(201) 997-5600","Email":"lewjr@abcarecycling.com","Website":"http://www.abcarecycling.com/","NAICS_Code":562920,"Infra_Type":"Glass Recycling Facility","Feedstock":"Glass","Street":"40 McWhirter Road","City":"Kearny","State":"NJ","Zip_Code":"07032"}},{"type":"Feature","id":2,"geometry":{"type":"Point","coordinates":[-9787251.04097236,5179725.12069545]},"properties":{"OBJECTID":2,"Name":"AGSCO Corporation","TELEPHONE":"(847) 520-4455","Email":"eaustin@agsco.com","Website":"http://www.agsco.com/","NAICS_Code":562920,"Infra_Type":"Glass Recycling Facility","Feedstock":"Glass","Street":"160 W Hintz Rd","City":"Wheeling","State":"IL","Zip_Code":"60090"}},{"type":"Feature","id":3,"geometry":{"type":"Point","coordinates":[-12459019.4521455,4991253.18495096]},"properties":{"OBJECTID":3,"Name":"American Specialty Glass","TELEPHONE":"(801) 294-4222","Email":"info@asgglass.com","Website":"http://www.americanspecialtyglass.com/","NAICS_Code":562920,"Infra_Type":"Glass Recycling Facility","Feedstock":"Glass","Street":"829 N 400 W","City":"North Salt Lake","State":"UT","Zip_Code":"84054"}},{"type":"Feature","id":4,"geometry":{"type":"Point","coordinates":[-8237609.21481008,4991012.86381654]},"properties":{"OBJECTID":4,"Name":"Arim, Inc.","TELEPHONE":"(201) 645-1814","Email":"cs@arimstone.com","Website":"https://www.arimstone.com/","NAICS_Code":562920,"Infra_Type":"Glass Recycling Facility","Feedstock":"Glass","Street":"154 West Edsall Blvd.","City":"Palisades Park","State":"NJ","Zip_Code":"07650"}},{"type":"Feature","id":5,"geometry":{"type":"Point","coordinates":[-8561650.61279112,4903833.3367121]},"properties":{"OBJECTID":5,"Name":"Black Beauty Abrasives","TELEPHONE":"(717) 506-2071","Email":"reedcs@harsco.com","Website":"http://www.blackbeautyabrasives.com/","NAICS_Code":562920,"Infra_Type":"Glass Recycling Facility","Feedstock":"Glass","Street":"350 Poplar Church Road","City":"Camp Hill","State":"PA","Zip_Code":"17011"}},{"type":"Feature","id":6,"geometry":{"type":"Point","coordinates":[-8855635.44629218,4882885.8921663]},"properties":{"OBJECTID":6,"Name":"CAP Glass","TELEPHONE":"(724) 547-4550","Email":" ","Website":"http://capglassrecycling.com/","NAICS_Code":562920,"Infra_Type":"Glass Recycling Facility","Feedstock":"Glass","Street":"1556 Mt. Pleasant Connellsville Road","City":"Mt. Pleasant","State":"PA","Zip_Code":"15666"}},{"type":"Feature","id":7,"geometry":{"type":"Point","coordinates":[-10518488.5129888,4446842.81019355]},"properties":{"OBJECTID":7,"Name":"Cascade Eco Minerals LLC","TELEPHONE":"(541) 516-1100","Email":"info@cascadeem.com","Website":"https://www.cascadeecominerals.com/","NAICS_Code":562920,"Infra_Type":"Glass Recycling Facility","Feedstock":"Glass","Street":"2401 E 32nd St. Ste. 10 PMB 344","City":"Joplin","State":"MO","Zip_Code":"64804"}},{"type":"Feature","id":8,"geometry":{"type":"Point","coordinates":[-8988340.2250814,4200086.17682705]},"properties":{"OBJECTID":8,"Name":"Concord Terrazzo Company, Inc.","TELEPHONE":"(704) 921-4928","Email":"info@terrazzco.com","Website":"http://terrazzco.com/","NAICS_Code":562920,"Infra_Type":"Glass Recycling Facility","Feedstock":"Glass","Street":"1818 University Commercial Place","City":"Charlotte","State":"NC","Zip_Code":"28213"}},{"type":"Feature","id":9,"geometry":{"type":"Point","coordinates":[-7951279.84495531,5202107.16259947]},"properties":{"OBJECTID":9,"Name":"Conigliaro Block, Inc.","TELEPHONE":"(508) 872-9668","Email":"greg@conigliaro.com","Website":"http://www.conigliaroblock.com/","NAICS_Code":562920,"Infra_Type":"Glass Recycling Facility","Feedstock":"Glass","Street":"701 Waverly Street","City":"Framingham","State":"MA","Zip_Code":"01702"}},{"type":"Feature","id":10,"geometry":{"type":"Point","coordinates":[-9272097.30681262,4987676.37477977]},"properties":{"OBJECTID":10,"Name":"Dlubak Glass Company","TELEPHONE":"(419) 209-0900","Email":"sales@dlubak.com","Website":"http://dlubak.com/","NAICS_Code":562920,"Infra_Type":"Glass Recycling Facility","Feedstock":"Glass","Street":"789 County Highway 330","City":"Upper Sandusky","State":"OH","Zip_Code":"43351"}},{"type":"Feature","id":11,"geometry":{"type":"Point","coordinates":[-8217816.60247211,5004890.75516218]},"properties":{"OBJECTID":11,"Name":"Elcan Industries Inc.","TELEPHONE":"(914) 381-7500","Email":"info@elcanindustries.com","Website":"https://elcanindustries.com/","NAICS_Code":562920,"Infra_Type":"Glass Recycling Facility","Feedstock":"Glass","Street":"20 Marbledale Road","City":"Tuckahoe","State":"NY","Zip_Code":"10707"}},{"type":"Feature","id":12,"geometry":{"type":"Point","coordinates":[-10760160.684019,3883469.73338613]},"properties":{"OBJECTID":12,"Name":"EnviroGlas Products Inc.","TELEPHONE":"(972) 276-9451","Email":" ","Website":"http://enviroglasproducts.com/","NAICS_Code":562920,"Infra_Type":"Glass Recycling Facility","Feedstock":"Glass","Street":"309 Gold Street","City":"Garland","State":"TX","Zip_Code":"75042"}},{"type":"Feature","id":13,"geometry":{"type":"Point","coordinates":[-13466883.9665814,4527382.17080494]},"properties":{"OBJECTID":13,"Name":"Gallo Glass Company","TELEPHONE":"(209) 341-4527","Email":" ","Website":"https://www.galloglass.com/","NAICS_Code":562920,"Infra_Type":"Glass Recycling Facility","Feedstock":"Glass","Street":"605 S Santa Cruz Ave","City":"Modesto","State":"CA","Zip_Code":"95354"}},{"type":"Feature","id":14,"geometry":{"type":"Point","coordinates":[-9257137.27740428,5211705.23901752]},"properties":{"OBJECTID":14,"Name":"Glass Recyclers, Inc.","TELEPHONE":"(800) 949-8305","Email":"glassrec@aol.com","Website":"http://www.glassrecyclers.net/","NAICS_Code":562920,"Infra_Type":"Glass Recycling Facility","Feedstock":"Glass","Street":"6465 Wyoming St.","City":"Dearborn","State":"MI","Zip_Code":"48126"}},{"type":"Feature","id":15,"geometry":{"type":"Point","coordinates":[-13114728.7705504,3990353.0189891]},"properties":{"OBJECTID":15,"Name":"GlassBlast","TELEPHONE":"(855) 291-6996","Email":"rik@glassblast.com","Website":"https://www.glassblast.com/","NAICS_Code":562920,"Infra_Type":"Glass Recycling Facility","Feedstock":"Glass","Street":"2652 Dow Ave.","City":"Tustin","State":"CA","Zip_Code":"92780"}},{"type":"Feature","id":16,"geometry":{"type":"Point","coordinates":[-12449624.3131226,5134095.71007083]},"properties":{"OBJECTID":16,"Name":"Heritage Glass, Inc.","TELEPHONE":"(435) 563-5585","Email":"info@hgglass.com","Website":"https://www.hgglass.com/","NAICS_Code":562920,"Infra_Type":"Glass Recycling Facility","Feedstock":"Glass","Street":"130 West 700 South Bldg E","City":"Smithfield","State":"UT","Zip_Code":"84335"}},{"type":"Feature","id":17,"geometry":{"type":"Point","coordinates":[-8790800.44473542,4004517.53074621]},"properties":{"OBJECTID":17,"Name":"Horry County Solid Waste Authority","TELEPHONE":"(843) 347-1651","Email":"info@solidwasteauthority.org","Website":"http://www.solidwasteauthority.org/","NAICS_Code":562920,"Infra_Type":"Glass Recycling Facility","Feedstock":"Glass","Street":"1886 Highway 90","City":"Conway","State":"SC","Zip_Code":"29526"}},{"type":"Feature","id":18,"geometry":{"type":"Point","coordinates":[-8285643.17496954,4943271.81734094]},"properties":{"OBJECTID":18,"Name":"Kramer Industries, Inc.","TELEPHONE":"(732) 650-9599","Email":"sales@kramerindustriesonline.com","Website":"http://www.kramerindustriesonline.com/","NAICS_Code":562920,"Infra_Type":"Glass Recycling Facility","Feedstock":"Glass","Street":"140 Ethel Road West Unit U","City":"Piscataway","State":"NJ","Zip_Code":"08854"}},{"type":"Feature","id":19,"geometry":{"type":"Point","coordinates":[-12466558.0074102,4976360.60089915]},"properties":{"OBJECTID":19,"Name":"Momentum Recycling","TELEPHONE":"(801) 355-0334","Email":"info@momentumrecycling.com","Website":"http://company.momentumrecycling.com/","NAICS_Code":562920,"Infra_Type":"Glass Recycling Facility","Feedstock":"Glass","Street":"658 South 4050 West","City":"Salt Lake City","State":"UT","Zip_Code":"84104"}},{"type":"Feature","id":20,"geometry":{"type":"Point","coordinates":[-9547287.07703729,4609821.52847232]},"properties":{"OBJECTID":20,"Name":"Parallel Products","TELEPHONE":"(800) 883-9100","Email":"CustomerServices@parallelproducts.com","Website":"http://www.parallelproducts.com/","NAICS_Code":562920,"Infra_Type":"Glass Recycling Facility","Feedstock":"Glass","Street":"401 Industry Rd.","City":"Louisville","State":"KY","Zip_Code":"40208"}},{"type":"Feature","id":21,"geometry":{"type":"Point","coordinates":[-8781597.48064362,5319127.83024903]},"properties":{"OBJECTID":21,"Name":"Pellets LLC","TELEPHONE":"(716) 693-1750","Email":"info@pelletsllc.com","Website":"http://pelletsllc.com/","NAICS_Code":562920,"Infra_Type":"Glass Recycling Facility","Feedstock":"Glass","Street":"63 Industrial Drive","City":"North Tonawanda","State":"NY","Zip_Code":"14120"}},{"type":"Feature","id":22,"geometry":{"type":"Point","coordinates":[-9004434.79158195,4229241.05064394]},"properties":{"OBJECTID":22,"Name":"Precision Recycling Industries LLC","TELEPHONE":"(704) 294-0259","Email":"brichardson@precisionrecycling.com","Website":"http://precisionrecycling.com/","NAICS_Code":562920,"Infra_Type":"Glass Recycling Facility","Feedstock":"Glass","Street":"19701 Bethel Church Rd. #116","City":"Cornelius","State":"NC","Zip_Code":"28031"}},{"type":"Feature","id":23,"geometry":{"type":"Point","coordinates":[-9321241.71559038,5114228.39090132]},"properties":{"OBJECTID":23,"Name":"Recycle Waste Services","TELEPHONE":"(419) 517-1323","Email":" ","Website":"http://www.recyclewasteservices.com/","NAICS_Code":562920,"Infra_Type":"Glass Recycling Facility","Feedstock":"Glass","Street":"7901 West Sylvania Avenue","City":"Sylvania","State":"OH","Zip_Code":"43560"}},{"type":"Feature","id":24,"geometry":{"type":"Point","coordinates":[-10528456.7337796,4737482.72002412]},"properties":{"OBJECTID":24,"Name":"Ripple Glass","TELEPHONE":"(816) 221-4527","Email":"info@rippleglass.com","Website":"http://www.rippleglass.com/","NAICS_Code":562920,"Infra_Type":"Glass Recycling Facility","Feedstock":"Glass","Street":"450 East 4th Street Suite 201","City":"Kansas City","State":"MO","Zip_Code":"64106"}},{"type":"Feature","id":25,"geometry":{"type":"Point","coordinates":[-8349279.24041265,5293805.96022925]},"properties":{"OBJECTID":25,"Name":"Ruby Lake Glass LLC","TELEPHONE":"(607) 435-8158","Email":"sales@rubylakeglass.com","Website":"https://www.rubylakeglass.com/","NAICS_Code":562920,"Infra_Type":"Glass Recycling Facility","Feedstock":"Glass","Street":"493 State Route 28","City":"Richfield Springs","State":"NY","Zip_Code":"13439"}},{"type":"Feature","id":26,"geometry":{"type":"Point","coordinates":[-9417971.33800376,4759467.01400327]},"properties":{"OBJECTID":26,"Name":"Rumpke Consolidated Companies, Inc.","TELEPHONE":"(800) 828-8171","Email":"%websupport@rumpke.com","Website":"https://www.rumpke.com/","NAICS_Code":562920,"Infra_Type":"Glass Recycling Facility","Feedstock":"Glass","Street":"3990 Generation Dr","City":"Cincinnati","State":"OH","Zip_Code":"45251"}},{"type":"Feature","id":27,"geometry":{"type":"Point","coordinates":[-11890584.620782,3802142.65267145]},"properties":{"OBJECTID":27,"Name":"South Central Solid Waste Authority","TELEPHONE":"(575) 528-3800","Email":" ","Website":"https://scswa.net/","NAICS_Code":562920,"Infra_Type":"Glass Recycling Facility","Feedstock":"Glass","Street":"2855 W. Amador Avenue","City":"Las Cruces","State":"NM","Zip_Code":"88005"}},{"type":"Feature","id":28,"geometry":{"type":"Point","coordinates":[-9202801.11261148,3253897.99494097]},"properties":{"OBJECTID":28,"Name":"Specialty Glass Inc","TELEPHONE":"(813) 855-5779","Email":"info@sgiglass.com","Website":"http://sgiglass.com/","NAICS_Code":562920,"Infra_Type":"Glass Recycling Facility","Feedstock":"Glass","Street":"305 Marlborough St.","City":"Oldsmar","State":"FL","Zip_Code":"34677"}},{"type":"Feature","id":29,"geometry":{"type":"Point","coordinates":[-10651118.8963556,3476103.88844821]},"properties":{"OBJECTID":29,"Name":"Strategic Materials","TELEPHONE":"(281) 647-2700","Email":"info@strategicmaterials.com","Website":"http://www.strategicmaterials.com/","NAICS_Code":562920,"Infra_Type":"Glass Recycling Facility","Feedstock":"Glass","Street":"17220 Katy Freeway Suite 150","City":"Houston","State":"TX","Zip_Code":"77094"}},{"type":"Feature","id":30,"geometry":{"type":"Point","coordinates":[-13620512.3256895,6048663.61840577]},"properties":{"OBJECTID":30,"Name":"Trivitro Corporation","TELEPHONE":"(425) 251-8340","Email":" ","Website":"https://trivitro.com/","NAICS_Code":562920,"Infra_Type":"Glass Recycling Facility","Feedstock":"Glass","Street":"150 Nickerson Street Suite 107","City":"Seattle","State":"WA","Zip_Code":"98109"}},{"type":"Feature","id":31,"geometry":{"type":"Point","coordinates":[-9883111.36947174,4250485.66381791]},"properties":{"OBJECTID":31,"Name":"Vitro Minerals, Inc.","TELEPHONE":"(678) 729-9333","Email":"technicalsales@vitrominerals.com","Website":"http://www.vitrominerals.com/","NAICS_Code":562920,"Infra_Type":"Glass Recycling Facility","Feedstock":"Glass","Street":"95 Pinnacle Drive","City":"Jackson","State":"TN","Zip_Code":"38301"}}]}