{"type":"FeatureCollection","crs":{"type":"name","properties":{"name":"EPSG:3857"}},"features":[{"type":"Feature","id":1,"geometry":{"type":"Point","coordinates":[-9819490.31726061,5383177.19338268]},"properties":{"OBJECTID":1,"Name":"A & W Iron & Metal, Inc.","TELEPHONE":null,"Email":null,"Website":null,"NAICS_Code":562920,"Infra_Type":"MRF","Feedstock":null,"Street":"7588 Otten Ln","City":"Kewaskum","State":"WI","Zip_Code":"53040"}},{"type":"Feature","id":2,"geometry":{"type":"Point","coordinates":[-9789373.56811205,5309180.12112109]},"properties":{"OBJECTID":2,"Name":"A-1 Recycling-Div of The Peltz","TELEPHONE":null,"Email":null,"Website":null,"NAICS_Code":562920,"Infra_Type":"MRF","Feedstock":null,"Street":"2020 W Morgan Ave","City":"Milwaukee","State":"WI","Zip_Code":"53221"}},{"type":"Feature","id":3,"geometry":{"type":"Point","coordinates":[-10263012.7869021,4124291.62433858]},"properties":{"OBJECTID":3,"Name":"Accura Paper Recycling Inc (Waste Management)","TELEPHONE":"(501) 490-0733","Email":null,"Website":null,"NAICS_Code":562920,"Infra_Type":"MRF","Feedstock":null,"Street":"7900 Sloane Dr","City":"Little Rock","State":"AR","Zip_Code":"72206"}},{"type":"Feature","id":4,"geometry":{"type":"Point","coordinates":[-8227839.11855922,4982550.27366711]},"properties":{"OBJECTID":4,"Name":"Action Environmental Group","TELEPHONE":null,"Email":null,"Website":null,"NAICS_Code":562920,"Infra_Type":"MRF","Feedstock":null,"Street":"920 E 132nd St","City":"Bronx","State":"NY","Zip_Code":"10454"}},{"type":"Feature","id":5,"geometry":{"type":"Point","coordinates":[-9339640.59910159,4706365.74653152]},"properties":{"OBJECTID":5,"Name":"Adams Brown Recycling Station","TELEPHONE":null,"Email":null,"Website":null,"NAICS_Code":562920,"Infra_Type":"MRF","Feedstock":null,"Street":"9262 Mount Orab Pike","City":"Georgetown","State":"OH","Zip_Code":"45121"}},{"type":"Feature","id":6,"geometry":{"type":"Point","coordinates":[-13056766.2696603,4088719.07233041]},"properties":{"OBJECTID":6,"Name":"Advance Disposal Co","TELEPHONE":"(760) 948-3122","Email":null,"Website":null,"NAICS_Code":562920,"Infra_Type":"MRF","Feedstock":null,"Street":"17105 Mesa St","City":"Hesperia","State":"CA","Zip_Code":"92345"}},{"type":"Feature","id":7,"geometry":{"type":"Point","coordinates":[-9387040.55144749,4034800.07982491]},"properties":{"OBJECTID":7,"Name":"Advanced Disposal LLC","TELEPHONE":"(678) 341-7144","Email":null,"Website":null,"NAICS_Code":562920,"Infra_Type":"MRF","Feedstock":null,"Street":"300 Colonial Center Pkwy # 2","City":"Roswell","State":"GA","Zip_Code":"30076"}},{"type":"Feature","id":8,"geometry":{"type":"Point","coordinates":[-9767471.12174806,5422886.87814731]},"properties":{"OBJECTID":8,"Name":"Advanced Disposal Services Solid Waste Midwest, LLC","TELEPHONE":null,"Email":null,"Website":null,"NAICS_Code":562920,"Infra_Type":"MRF","Feedstock":null,"Street":"2905 Paine Ave","City":"Sheboygan","State":"WI","Zip_Code":"53081"}},{"type":"Feature","id":9,"geometry":{"type":"Point","coordinates":[-9956180.70847565,5340455.09538327]},"properties":{"OBJECTID":9,"Name":"Advanced Disposal Services Solid Waste Midwest, LLC","TELEPHONE":null,"Email":null,"Website":null,"NAICS_Code":562920,"Infra_Type":"MRF","Feedstock":null,"Street":"300 Raemisch Rd","City":"Waunakee","State":"WI","Zip_Code":"53597"}},{"type":"Feature","id":10,"geometry":{"type":"Point","coordinates":[-9963142.40304223,5536313.59307911]},"properties":{"OBJECTID":10,"Name":"Advanced Disposal Services Solid Waste Midwest, LLC","TELEPHONE":null,"Email":null,"Website":null,"NAICS_Code":562920,"Infra_Type":"MRF","Feedstock":null,"Street":"600 Moore Rd","City":"Plover","State":"WI","Zip_Code":"54467"}},{"type":"Feature","id":11,"geometry":{"type":"Point","coordinates":[-8174473.98333942,5071431.60838365]},"properties":{"OBJECTID":11,"Name":"Advanced Recycling Corporation","TELEPHONE":"(203) 797-0378","Email":null,"Website":null,"NAICS_Code":562920,"Infra_Type":"MRF","Feedstock":null,"Street":"307 White St","City":"Danbury","State":"CT","Zip_Code":"06810"}},{"type":"Feature","id":12,"geometry":{"type":"Point","coordinates":[-13597842.4485754,4538500.73880525]},"properties":{"OBJECTID":12,"Name":"Alameda County Industries, LLC","TELEPHONE":"(510) 357-7282","Email":null,"Website":"www.alamedacountyindustries.com","NAICS_Code":562920,"Infra_Type":"MRF","Feedstock":null,"Street":"610 Aladdin Ave","City":"San Leandro","State":"CA","Zip_Code":"94577"}},{"type":"Feature","id":13,"geometry":{"type":"Point","coordinates":[-8242620.94544612,4973975.49124998]},"properties":{"OBJECTID":13,"Name":"All American Recycling Corp. of Clifton","TELEPHONE":null,"Email":null,"Website":null,"NAICS_Code":562920,"Infra_Type":"MRF","Feedstock":null,"Street":"2 Hope St","City":"Jersey City","State":"NJ","Zip_Code":"07307"}},{"type":"Feature","id":14,"geometry":{"type":"Point","coordinates":[-8923241.14446585,3035133.76146906]},"properties":{"OBJECTID":14,"Name":"All County Waste Recycling, Inc.","TELEPHONE":null,"Email":null,"Website":null,"NAICS_Code":562920,"Infra_Type":"MRF","Feedstock":null,"Street":"1810 SW 42nd Way","City":"Deerfield Beach","State":"FL","Zip_Code":"33442"}},{"type":"Feature","id":15,"geometry":{"type":"Point","coordinates":[-8088054.64175823,5122097.75052955]},"properties":{"OBJECTID":15,"Name":"All Waste, Inc.","TELEPHONE":null,"Email":null,"Website":null,"NAICS_Code":562920,"Infra_Type":"MRF","Feedstock":null,"Street":"143 Murphy Rd","City":"Hartford","State":"CT","Zip_Code":"06114"}},{"type":"Feature","id":16,"geometry":{"type":"Point","coordinates":[-8782855.48185289,5306783.95801384]},"properties":{"OBJECTID":16,"Name":"Allied Waste Industries, LLC","TELEPHONE":null,"Email":null,"Website":null,"NAICS_Code":562920,"Infra_Type":"MRF","Feedstock":null,"Street":"2299 Kenmore Ave","City":"Buffalo","State":"NY","Zip_Code":"14207"}},{"type":"Feature","id":17,"geometry":{"type":"Point","coordinates":[-9147200.03256669,5056416.01664666]},"properties":{"OBJECTID":17,"Name":"Allied Waste Industries, LLC","TELEPHONE":null,"Email":null,"Website":null,"NAICS_Code":562920,"Infra_Type":"MRF","Feedstock":null,"Street":"43502 Oberlin Elyria Rd","City":"Oberlin","State":"OH","Zip_Code":"44074"}},{"type":"Feature","id":18,"geometry":{"type":"Point","coordinates":[-8388443.83075097,4879738.26916922]},"properties":{"OBJECTID":18,"Name":"Allied Waste Recyclery","TELEPHONE":null,"Email":null,"Website":null,"NAICS_Code":562920,"Infra_Type":"MRF","Feedstock":null,"Street":"215 E Dekalb Pike","City":"King of Prussia","State":"PA","Zip_Code":"19406"}},{"type":"Feature","id":19,"geometry":{"type":"Point","coordinates":[-11687920.9189527,4836563.80202701]},"properties":{"OBJECTID":19,"Name":"Alpine Waste and Recycling","TELEPHONE":"(303) 744-9881","Email":null,"Website":"www.alpinewaste.com","NAICS_Code":562920,"Infra_Type":"MRF","Feedstock":null,"Street":"645 W 53rd Pl","City":"Denver","State":"CO","Zip_Code":"80216"}},{"type":"Feature","id":20,"geometry":{"type":"Point","coordinates":[-8627317.75526228,4684878.14528003]},"properties":{"OBJECTID":20,"Name":"American Disposal Recycling Services, Inc","TELEPHONE":null,"Email":null,"Website":null,"NAICS_Code":562920,"Infra_Type":"MRF","Feedstock":null,"Street":"10370 Central Park Dr","City":"Manassas","State":"VA","Zip_Code":"20110"}},{"type":"Feature","id":21,"geometry":{"type":"Point","coordinates":[-8630394.46695119,4683537.07099536]},"properties":{"OBJECTID":21,"Name":"American Recycling Center","TELEPHONE":null,"Email":null,"Website":null,"NAICS_Code":562920,"Infra_Type":"MRF","Feedstock":null,"Street":"10220 Residency Rd","City":"Manassas","State":"VA","Zip_Code":"20110"}},{"type":"Feature","id":22,"geometry":{"type":"Point","coordinates":[-9411542.97645743,3996204.14910764]},"properties":{"OBJECTID":22,"Name":"American Recycling of GA","TELEPHONE":null,"Email":null,"Website":null,"NAICS_Code":562920,"Infra_Type":"MRF","Feedstock":null,"Street":"4785 Fulton Industrial Blvd SW","City":"Atlanta","State":"GA","Zip_Code":"30336"}},{"type":"Feature","id":23,"geometry":{"type":"Point","coordinates":[-9200287.30290556,4237634.19602325]},"properties":{"OBJECTID":23,"Name":"American Recycling of Western North Carolina, LLC","TELEPHONE":null,"Email":null,"Website":null,"NAICS_Code":562920,"Infra_Type":"MRF","Feedstock":null,"Street":"1291 Sand Hill Rd","City":"Candler","State":"NC","Zip_Code":"28715"}},{"type":"Feature","id":24,"geometry":{"type":"Point","coordinates":[-9527654.76935937,5576109.85104062]},"properties":{"OBJECTID":24,"Name":"American Waste, Inc.","TELEPHONE":null,"Email":null,"Website":null,"NAICS_Code":562920,"Infra_Type":"MRF","Feedstock":null,"Street":"280 Hughes Dr","City":"Traverse City","State":"MI","Zip_Code":"49696"}},{"type":"Feature","id":25,"geometry":{"type":"Point","coordinates":[-9828051.30160665,5259430.31243698]},"properties":{"OBJECTID":25,"Name":"Andy's Recycling","TELEPHONE":null,"Email":null,"Website":null,"NAICS_Code":562920,"Infra_Type":"MRF","Feedstock":null,"Street":"6320 McHenry St","City":"Burlington","State":"WI","Zip_Code":"53105"}},{"type":"Feature","id":26,"geometry":{"type":"Point","coordinates":[-8659927.34790333,4811762.92342242]},"properties":{"OBJECTID":26,"Name":"Apple Valley Recycling Center","TELEPHONE":null,"Email":null,"Website":null,"NAICS_Code":562920,"Infra_Type":"MRF","Feedstock":null,"Street":"16608 Hunters Green Pkwy","City":"Hagerstown","State":"MD","Zip_Code":"21740"}},{"type":"Feature","id":27,"geometry":{"type":"Point","coordinates":[-9981455.68678561,4942956.05463492]},"properties":{"OBJECTID":27,"Name":"Area Recycling Inc","TELEPHONE":"(309) 353-3333","Email":null,"Website":"www.pdcarea.com","NAICS_Code":562920,"Infra_Type":"MRF","Feedstock":null,"Street":"14323 State Route 29","City":"Pekin","State":"IL","Zip_Code":"61554"}},{"type":"Feature","id":28,"geometry":{"type":"Point","coordinates":[-9876138.12673196,5410212.50104199]},"properties":{"OBJECTID":28,"Name":"Aronson Recycling Co","TELEPHONE":null,"Email":null,"Website":null,"NAICS_Code":562920,"Infra_Type":"MRF","Feedstock":null,"Street":"513 Fond du Lac St","City":"Waupun","State":"WI","Zip_Code":"53963"}},{"type":"Feature","id":29,"geometry":{"type":"Point","coordinates":[-9276983.42587994,4023906.04745137]},"properties":{"OBJECTID":29,"Name":"Athens Recycling Information","TELEPHONE":"(706) 548-9808","Email":null,"Website":"www.athensclarkecounty.com","NAICS_Code":562920,"Infra_Type":"MRF","Feedstock":null,"Street":"699 Hancock Indus Way","City":"Athens","State":"GA","Zip_Code":"30605"}},{"type":"Feature","id":30,"geometry":{"type":"Point","coordinates":[-13180436.4362166,4063128.11748071]},"properties":{"OBJECTID":30,"Name":"Athens Services","TELEPHONE":null,"Email":null,"Website":null,"NAICS_Code":562920,"Infra_Type":"MRF","Feedstock":null,"Street":"12303 Montague St","City":"Pacoima","State":"CA","Zip_Code":"91331"}},{"type":"Feature","id":31,"geometry":{"type":"Point","coordinates":[-9147508.61721033,4776435.1854696]},"properties":{"OBJECTID":31,"Name":"Athens-Hocking County Recycling Centers, Inc","TELEPHONE":null,"Email":null,"Website":null,"NAICS_Code":562920,"Infra_Type":"MRF","Feedstock":null,"Street":"5991 Industrial Park Rd","City":"Athens","State":"OH","Zip_Code":"45701"}},{"type":"Feature","id":32,"geometry":{"type":"Point","coordinates":[-8259083.58499438,4875246.82504846]},"properties":{"OBJECTID":32,"Name":"Atlantic Coast Recycling of Ocean LL","TELEPHONE":null,"Email":null,"Website":null,"NAICS_Code":562920,"Infra_Type":"MRF","Feedstock":null,"Street":"611 New Hampshire Ave","City":"Lakewood","State":"NJ","Zip_Code":"08701"}},{"type":"Feature","id":33,"geometry":{"type":"Point","coordinates":[-9262445.76930473,3911103.65096709]},"properties":{"OBJECTID":33,"Name":"Attaway Recycling, LLC","TELEPHONE":"(478) 414-1675","Email":null,"Website":"www.attawayrecycling.com","NAICS_Code":562920,"Infra_Type":"MRF","Feedstock":null,"Street":"150 Dundee Dr","City":"Milledgeville","State":"GA","Zip_Code":"31061"}},{"type":"Feature","id":34,"geometry":{"type":"Point","coordinates":[-8145382.39433743,5039114.05026932]},"properties":{"OBJECTID":34,"Name":"Automated Material Handling","TELEPHONE":null,"Email":null,"Website":null,"NAICS_Code":562920,"Infra_Type":"MRF","Feedstock":null,"Street":"1300 Seaview Avenue","City":"Bridgeport","State":"CT","Zip_Code":"06606"}},{"type":"Feature","id":35,"geometry":{"type":"Point","coordinates":[-10867680.2812617,3545607.26815401]},"properties":{"OBJECTID":35,"Name":"Balcones Recycling, Inc.","TELEPHONE":null,"Email":null,"Website":null,"NAICS_Code":562920,"Infra_Type":"MRF","Feedstock":null,"Street":"9301 Johnny Morris Rd","City":"Austin","State":"TX","Zip_Code":"78724"}},{"type":"Feature","id":36,"geometry":{"type":"Point","coordinates":[-8532324.08671507,4789922.72866861]},"properties":{"OBJECTID":36,"Name":"Baltimore County MRF","TELEPHONE":null,"Email":null,"Website":null,"NAICS_Code":562920,"Infra_Type":"MRF","Feedstock":null,"Street":"201 West Warren Road","City":"Cockeysville","State":"MD","Zip_Code":"21030"}},{"type":"Feature","id":37,"geometry":{"type":"Point","coordinates":[-10245072.0666362,5678340.8834246]},"properties":{"OBJECTID":37,"Name":"Barron County Waste to Energy and Recycling Facility","TELEPHONE":null,"Email":null,"Website":null,"NAICS_Code":562920,"Infra_Type":"MRF","Feedstock":null,"Street":"585 10 1/2 Ave","City":"Almena","State":"WI","Zip_Code":"54805"}},{"type":"Feature","id":38,"geometry":{"type":"Point","coordinates":[-8271892.87950247,4940564.28130626]},"properties":{"OBJECTID":38,"Name":"Bayshore Recycling Corp.","TELEPHONE":null,"Email":null,"Website":null,"NAICS_Code":562920,"Infra_Type":"MRF","Feedstock":null,"Street":"75 Crows Mill Rd","City":"Keasbey","State":"NJ","Zip_Code":"08832"}},{"type":"Feature","id":39,"geometry":{"type":"Point","coordinates":[-11669607.1873361,4706035.51131082]},"properties":{"OBJECTID":39,"Name":"Bestway Recycling, Inc.","TELEPHONE":"(719) 203-3313","Email":null,"Website":"www.bestwaydisposal.com","NAICS_Code":562920,"Infra_Type":"MRF","Feedstock":null,"Street":"4005 Interpark Dr Ste A","City":"Colorado Springs","State":"CO","Zip_Code":"80907"}},{"type":"Feature","id":40,"geometry":{"type":"Point","coordinates":[-8373581.89530829,4856178.85642609]},"properties":{"OBJECTID":40,"Name":"BFI Philadelphia Transcycler Co","TELEPHONE":null,"Email":null,"Website":null,"NAICS_Code":562920,"Infra_Type":"MRF","Feedstock":null,"Street":"2209 S 58th St","City":"Philadelphia","State":"PA","Zip_Code":"19143"}},{"type":"Feature","id":41,"geometry":{"type":"Point","coordinates":[-13628353.4473015,4951046.37883139]},"properties":{"OBJECTID":41,"Name":"Big Foot Recycling Center","TELEPHONE":"(530) 244-2165","Email":null,"Website":"www.bigfootrecycling.com","NAICS_Code":562920,"Infra_Type":"MRF","Feedstock":null,"Street":"3685 Eureka Way","City":"Redding","State":"CA","Zip_Code":"96001"}},{"type":"Feature","id":42,"geometry":{"type":"Point","coordinates":[-9659759.49886534,3965386.89028735]},"properties":{"OBJECTID":42,"Name":"Birmingham Recycling & Recovery, LLC","TELEPHONE":"(205) 591-8201","Email":null,"Website":"www.birminghamrecyclingandrecovery.com","NAICS_Code":562920,"Infra_Type":"MRF","Feedstock":null,"Street":"9 41st St S","City":"Birmingham","State":"AL","Zip_Code":"35222"}},{"type":"Feature","id":43,"geometry":{"type":"Point","coordinates":[-13623448.4891658,4529921.86016355]},"properties":{"OBJECTID":43,"Name":"Blue Line Transfer Inc","TELEPHONE":null,"Email":null,"Website":null,"NAICS_Code":562920,"Infra_Type":"MRF","Feedstock":null,"Street":"500 E Jamie Ct","City":"South San Francisco","State":"CA","Zip_Code":"94080"}},{"type":"Feature","id":44,"geometry":{"type":"Point","coordinates":[-11711780.6925557,4868592.92955269]},"properties":{"OBJECTID":44,"Name":"Boulder County Recycling Center","TELEPHONE":"(303) 449-1857","Email":null,"Website":"www.bouldercounty.org","NAICS_Code":562920,"Infra_Type":"MRF","Feedstock":null,"Street":"1901 63rd St","City":"Boulder","State":"CO","Zip_Code":"80301"}},{"type":"Feature","id":45,"geometry":{"type":"Point","coordinates":[-11985023.7331234,4553120.76542762]},"properties":{"OBJECTID":45,"Name":"Bruin Waste Management","TELEPHONE":null,"Email":null,"Website":null,"NAICS_Code":562920,"Infra_Type":"MRF","Feedstock":null,"Street":null,"City":"Silverton","State":"CO","Zip_Code":"81433"}},{"type":"Feature","id":46,"geometry":{"type":"Point","coordinates":[-10397215.5038279,5574985.39952291]},"properties":{"OBJECTID":46,"Name":"Buckingham Recycling Facility","TELEPHONE":null,"Email":null,"Website":null,"NAICS_Code":562920,"Infra_Type":"MRF","Feedstock":null,"Street":"5980 Credit River Road SE","City":"Prior Lake","State":"MN","Zip_Code":"55372"}},{"type":"Feature","id":47,"geometry":{"type":"Point","coordinates":[-11797406.1944037,4258790.38200138]},"properties":{"OBJECTID":47,"Name":"Buckman Recycling Center","TELEPHONE":null,"Email":null,"Website":null,"NAICS_Code":562920,"Infra_Type":"MRF","Feedstock":null,"Street":"2600 Buckman Road","City":"Santa Fe","State":"NM","Zip_Code":"87507"}},{"type":"Feature","id":48,"geometry":{"type":"Point","coordinates":[-8775644.02332465,5288531.62229323]},"properties":{"OBJECTID":48,"Name":"Buffalo Recycling Enterprises LLC","TELEPHONE":null,"Email":null,"Website":null,"NAICS_Code":562920,"Infra_Type":"MRF","Feedstock":null,"Street":"266 Hopkins St","City":"Buffalo","State":"NY","Zip_Code":"14220"}},{"type":"Feature","id":49,"geometry":{"type":"Point","coordinates":[-13170025.8379906,4052394.49183001]},"properties":{"OBJECTID":49,"Name":"Burbank Recycle Center","TELEPHONE":null,"Email":null,"Website":null,"NAICS_Code":562920,"Infra_Type":"MRF","Feedstock":null,"Street":"500 S Flower St","City":"Burbank","State":"CA","Zip_Code":"91502"}},{"type":"Feature","id":50,"geometry":{"type":"Point","coordinates":[-13081344.7211481,4040737.04466981]},"properties":{"OBJECTID":50,"Name":"Burrtec Waste and Recycling Services, LLC","TELEPHONE":"(951) 360-9073","Email":null,"Website":"www.burrtec.com","NAICS_Code":562920,"Infra_Type":"MRF","Feedstock":null,"Street":"13373 NAPA St","City":"Fontana","State":"CA","Zip_Code":"92335"}},{"type":"Feature","id":51,"geometry":{"type":"Point","coordinates":[-13066854.9310225,4031761.3041249]},"properties":{"OBJECTID":51,"Name":"Burrtec Waste Industries","TELEPHONE":null,"Email":null,"Website":null,"NAICS_Code":562920,"Infra_Type":"MRF","Feedstock":null,"Street":"1850 Agua Mansa Rd","City":"Riverside","State":"CA","Zip_Code":"92509"}},{"type":"Feature","id":52,"geometry":{"type":"Point","coordinates":[-13567598.0557098,4490112.93411155]},"properties":{"OBJECTID":52,"Name":"California Waste Solutions Inc.","TELEPHONE":"(510) 832-8111","Email":null,"Website":"www.calwaste.com","NAICS_Code":562920,"Infra_Type":"MRF","Feedstock":null,"Street":"1005 Timothy Dr","City":"San Jose","State":"CA","Zip_Code":"95133"}},{"type":"Feature","id":53,"geometry":{"type":"Point","coordinates":[-13614670.7247054,4552741.58703556]},"properties":{"OBJECTID":53,"Name":"California Waste Solutions Inc.","TELEPHONE":"(510) 836-6200","Email":null,"Website":"www.calwaste.com","NAICS_Code":562920,"Infra_Type":"MRF","Feedstock":null,"Street":"1819 10th St","City":"Oakland","State":"CA","Zip_Code":"94607"}},{"type":"Feature","id":54,"geometry":{"type":"Point","coordinates":[-13504379.8466436,4617694.56890283]},"properties":{"OBJECTID":54,"Name":"Cal-Waste Recovery Systems","TELEPHONE":null,"Email":null,"Website":null,"NAICS_Code":562920,"Infra_Type":"MRF","Feedstock":null,"Street":"175 Enterprise Ct STE A","City":"Galt","State":"CA","Zip_Code":"95632"}},{"type":"Feature","id":55,"geometry":{"type":"Point","coordinates":[-8647327.06954777,5338420.0739244]},"properties":{"OBJECTID":55,"Name":"Cascades New York Inc.","TELEPHONE":null,"Email":null,"Website":null,"NAICS_Code":562920,"Infra_Type":"MRF","Feedstock":null,"Street":"1845 Emerson St","City":"Rochester","State":"NY","Zip_Code":"14606"}},{"type":"Feature","id":56,"geometry":{"type":"Point","coordinates":[-8000581.32700246,5189882.80948473]},"properties":{"OBJECTID":56,"Name":"Casella Recycling - Auburn","TELEPHONE":"(508) 721-2700","Email":null,"Website":"www.republicservices.com","NAICS_Code":562920,"Infra_Type":"MRF","Feedstock":null,"Street":"15 Hardscrabble Rd","City":"Auburn","State":"MA","Zip_Code":"01501"}},{"type":"Feature","id":57,"geometry":{"type":"Point","coordinates":[-7911981.62977782,5217874.44361087]},"properties":{"OBJECTID":57,"Name":"Casella Recycling - Boston","TELEPHONE":"(617) 242-7746","Email":null,"Website":"www.republicservices.com","NAICS_Code":562920,"Infra_Type":"MRF","Feedstock":null,"Street":"24 Bunker Hill Industrial Park","City":"Boston","State":"MA","Zip_Code":"02129"}},{"type":"Feature","id":58,"geometry":{"type":"Point","coordinates":[-7813045.69994188,5473088.26294298]},"properties":{"OBJECTID":58,"Name":"Casella Recycling Materials Recovery Facility","TELEPHONE":null,"Email":null,"Website":null,"NAICS_Code":562920,"Infra_Type":"MRF","Feedstock":null,"Street":"424 River Road","City":"Lewiston","State":"ME","Zip_Code":"04240"}},{"type":"Feature","id":59,"geometry":{"type":"Point","coordinates":[-8125537.46818242,5404410.42916744]},"properties":{"OBJECTID":59,"Name":"Casella Renewable Systems, LLC","TELEPHONE":null,"Email":null,"Website":null,"NAICS_Code":562920,"Infra_Type":"MRF","Feedstock":null,"Street":"25 Greens Hill Ln","City":"Rutland","State":"VT","Zip_Code":"05701"}},{"type":"Feature","id":60,"geometry":{"type":"Point","coordinates":[-8141026.40161822,5537304.04802255]},"properties":{"OBJECTID":60,"Name":"Casella Waste Management, Inc.","TELEPHONE":null,"Email":null,"Website":null,"NAICS_Code":562920,"Infra_Type":"MRF","Feedstock":null,"Street":"357 Avenue","City":"Williston","State":"VT","Zip_Code":"05495"}},{"type":"Feature","id":61,"geometry":{"type":"Point","coordinates":[-13334128.3559982,4401049.7543832]},"properties":{"OBJECTID":61,"Name":"Cedar Avenue Recycling and Transfer Station, L.P.","TELEPHONE":null,"Email":null,"Website":null,"NAICS_Code":562920,"Infra_Type":"MRF","Feedstock":null,"Street":"253 Fulton St","City":"Fresno","State":"CA","Zip_Code":"93721"}},{"type":"Feature","id":62,"geometry":{"type":"Point","coordinates":[-13130919.8537283,4042961.98511809]},"properties":{"OBJECTID":62,"Name":"Cedarwood-Young Company","TELEPHONE":"(626) 962-4047","Email":null,"Website":"www.allancompany.com","NAICS_Code":562920,"Infra_Type":"MRF","Feedstock":null,"Street":"14620 Joanbridge St","City":"Baldwin Park","State":"CA","Zip_Code":"91706"}},{"type":"Feature","id":63,"geometry":{"type":"Point","coordinates":[-8915524.70889015,3889151.14754735]},"properties":{"OBJECTID":63,"Name":"Charleston County MRF","TELEPHONE":null,"Email":null,"Website":null,"NAICS_Code":562920,"Infra_Type":"MRF","Feedstock":null,"Street":"8099 Palmetto Commerce Parkway","City":"North Charleston","State":"SC","Zip_Code":"29456"}},{"type":"Feature","id":64,"geometry":{"type":"Point","coordinates":[-8184142.3965428,5024063.60305674]},"properties":{"OBJECTID":64,"Name":"City Carting & Recycling Inc.","TELEPHONE":"(888) 413-3344","Email":null,"Website":"www.citycarting.net","NAICS_Code":562920,"Infra_Type":"MRF","Feedstock":null,"Street":"8 Viaduct Rd Stamford","City":"Stamford","State":"CT","Zip_Code":"06907"}},{"type":"Feature","id":65,"geometry":{"type":"Point","coordinates":[-13161299.8308783,4030819.29290549]},"properties":{"OBJECTID":65,"Name":"City Fibers","TELEPHONE":null,"Email":null,"Website":null,"NAICS_Code":562920,"Infra_Type":"MRF","Feedstock":null,"Street":"2500 S. Sante Fe Ave","City":"Los Angeles","State":"CA","Zip_Code":"90058"}},{"type":"Feature","id":66,"geometry":{"type":"Point","coordinates":[-13191003.6594374,4058686.37800966]},"properties":{"OBJECTID":66,"Name":"City Fibers, Inc.","TELEPHONE":"(818) 895-7203","Email":null,"Website":"www.cityfibers.com","NAICS_Code":562920,"Infra_Type":"MRF","Feedstock":null,"Street":"16714 Schoenborn St","City":"North Hills","State":"CA","Zip_Code":"91343"}},{"type":"Feature","id":67,"geometry":{"type":"Point","coordinates":[-10269914.3678535,4723754.55809019]},"properties":{"OBJECTID":67,"Name":"City of Columbia MRF","TELEPHONE":null,"Email":null,"Website":null,"NAICS_Code":562920,"Infra_Type":"MRF","Feedstock":null,"Street":"5700 Peabody Road","City":"Columbia","State":"MO","Zip_Code":"65202"}},{"type":"Feature","id":68,"geometry":{"type":"Point","coordinates":[-10297772.6771702,4179043.37197518]},"properties":{"OBJECTID":68,"Name":"City of Conway Recycling Center","TELEPHONE":null,"Email":null,"Website":null,"NAICS_Code":562920,"Infra_Type":"MRF","Feedstock":null,"Street":"4550 US-64 ","City":"Conway","State":"AR","Zip_Code":"72034"}},{"type":"Feature","id":69,"geometry":{"type":"Point","coordinates":[-9758073.38228114,4137612.40554971]},"properties":{"OBJECTID":69,"Name":"City of Florence Recycling Center","TELEPHONE":null,"Email":null,"Website":null,"NAICS_Code":562920,"Infra_Type":"MRF","Feedstock":null,"Street":"201 Railroad Avenue","City":"Florence","State":"AL","Zip_Code":"35630"}},{"type":"Feature","id":70,"geometry":{"type":"Point","coordinates":[-12502192.4890771,3968164.89832895]},"properties":{"OBJECTID":70,"Name":"City of Glendale Municipal Landfill and MRF","TELEPHONE":null,"Email":null,"Website":null,"NAICS_Code":562920,"Infra_Type":"MRF","Feedstock":null,"Street":"11480 W. Glendale Avenue","City":"Glendale","State":"AZ","Zip_Code":"85307"}},{"type":"Feature","id":71,"geometry":{"type":"Point","coordinates":[-9785968.8639403,5318352.08597139]},"properties":{"OBJECTID":71,"Name":"City of Milwaukee","TELEPHONE":null,"Email":null,"Website":null,"NAICS_Code":562920,"Infra_Type":"MRF","Feedstock":null,"Street":"841 N Broadway","City":"Milwaukee","State":"WI","Zip_Code":"53202"}},{"type":"Feature","id":72,"geometry":{"type":"Point","coordinates":[-11499348.0681345,5486260.8067182]},"properties":{"OBJECTID":72,"Name":"City of Rapid City","TELEPHONE":null,"Email":null,"Website":null,"NAICS_Code":562920,"Infra_Type":"MRF","Feedstock":null,"Street":"5165 N Highway 79","City":"Rapid City","State":"SD","Zip_Code":"57702"}},{"type":"Feature","id":73,"geometry":{"type":"Point","coordinates":[-13592785.0922483,4435840.05680722]},"properties":{"OBJECTID":73,"Name":"City of Santa Cruz","TELEPHONE":"(831) 420-6270","Email":null,"Website":"www.cityofsantacruz.com","NAICS_Code":562920,"Infra_Type":"MRF","Feedstock":null,"Street":"605 Dimeo Ln","City":"Santa Cruz","State":"CA","Zip_Code":"95060"}},{"type":"Feature","id":74,"geometry":{"type":"Point","coordinates":[-9269122.26194166,4018882.0329945]},"properties":{"OBJECTID":74,"Name":"Clarke Co - Athens Dunlap Road MRF","TELEPHONE":null,"Email":null,"Website":null,"NAICS_Code":562920,"Infra_Type":"MRF","Feedstock":null,"Street":"5700 Lexington Road","City":"Winterville","State":"GA","Zip_Code":"30683"}},{"type":"Feature","id":75,"geometry":{"type":"Point","coordinates":[-8291350.30202148,4935390.42360643]},"properties":{"OBJECTID":75,"Name":"Colgate Paper Stock Co., Inc.","TELEPHONE":null,"Email":null,"Website":null,"NAICS_Code":562920,"Infra_Type":"MRF","Feedstock":null,"Street":"12 Industrial Dr","City":"New Brunswick","State":"NJ","Zip_Code":"08901"}},{"type":"Feature","id":76,"geometry":{"type":"Point","coordinates":[-9445275.22862126,3827828.42379339]},"properties":{"OBJECTID":76,"Name":"Columbus Recycling & Sustainability Center","TELEPHONE":null,"Email":null,"Website":null,"NAICS_Code":562920,"Infra_Type":"MRF","Feedstock":null,"Street":"8001 Pine Grove Way","City":"Columbus","State":"GA","Zip_Code":"31907"}},{"type":"Feature","id":77,"geometry":{"type":"Point","coordinates":[-13335921.9295938,4797929.78597318]},"properties":{"OBJECTID":77,"Name":"Commercial Row Recycling MRF","TELEPHONE":null,"Email":null,"Website":null,"NAICS_Code":562920,"Infra_Type":"MRF","Feedstock":null,"Street":"1100 E Commercial Row","City":"Reno","State":"NV","Zip_Code":"89512"}},{"type":"Feature","id":78,"geometry":{"type":"Point","coordinates":[-13614949.1338914,4562359.61737323]},"properties":{"OBJECTID":78,"Name":"Community Conservation Center, Inc","TELEPHONE":"(510) 524-0113","Email":null,"Website":"www.berkeleyrecycling.org","NAICS_Code":562920,"Infra_Type":"MRF","Feedstock":null,"Street":"669 Gilman St","City":"Berkeley","State":"CA","Zip_Code":"94710"}},{"type":"Feature","id":79,"geometry":{"type":"Point","coordinates":[-10788195.9422623,3877520.71148717]},"properties":{"OBJECTID":79,"Name":"Community Waste Disposal","TELEPHONE":null,"Email":null,"Website":null,"NAICS_Code":562920,"Infra_Type":"MRF","Feedstock":null,"Street":"2010 California Crossing Road","City":"Dallas","State":"TX","Zip_Code":"75220"}},{"type":"Feature","id":80,"geometry":{"type":"Point","coordinates":[-13121347.4875428,4008557.52759475]},"properties":{"OBJECTID":80,"Name":"Consolidated Volume Transporters Inc","TELEPHONE":"(714) 238-3301","Email":null,"Website":null,"NAICS_Code":562920,"Infra_Type":"MRF","Feedstock":null,"Street":"1131 N Blue Gum St","City":"Anaheim","State":"CA","Zip_Code":"92806"}},{"type":"Feature","id":81,"geometry":{"type":"Point","coordinates":[-8631617.02086179,4136544.17301754]},"properties":{"OBJECTID":81,"Name":"Costal Enterprises Inc","TELEPHONE":null,"Email":null,"Website":null,"NAICS_Code":562920,"Infra_Type":"MRF","Feedstock":null,"Street":"417 Meadowview Rd","City":"Jacksonville","State":"NC","Zip_Code":"28540"}},{"type":"Feature","id":82,"geometry":{"type":"Point","coordinates":[-8457937.69525936,4944912.01460768]},"properties":{"OBJECTID":82,"Name":"Cougle's Recycling, Inc.","TELEPHONE":null,"Email":null,"Website":null,"NAICS_Code":562920,"Infra_Type":"MRF","Feedstock":null,"Street":"1000 S 4th St","City":"Hamburg","State":"PA","Zip_Code":"19526"}},{"type":"Feature","id":83,"geometry":{"type":"Point","coordinates":[-10000979.0119818,5469620.67333698]},"properties":{"OBJECTID":83,"Name":"County of Adams","TELEPHONE":null,"Email":null,"Website":null,"NAICS_Code":562920,"Infra_Type":"MRF","Feedstock":null,"Street":"1420 State Road 21","City":"Friendship","State":"WI","Zip_Code":"53934"}},{"type":"Feature","id":84,"geometry":{"type":"Point","coordinates":[-9948946.05384726,5386752.09983049]},"properties":{"OBJECTID":84,"Name":"County of Columbia","TELEPHONE":null,"Email":null,"Website":null,"NAICS_Code":562920,"Infra_Type":"MRF","Feedstock":null,"Street":"W 7465 State Hwy 16","City":"Pardeeville","State":"WI","Zip_Code":"53954"}},{"type":"Feature","id":85,"geometry":{"type":"Point","coordinates":[-9452379.97202585,5691747.41048964]},"properties":{"OBJECTID":85,"Name":"County of Emmet","TELEPHONE":null,"Email":null,"Website":null,"NAICS_Code":562920,"Infra_Type":"MRF","Feedstock":null,"Street":"7363 S Pleasantview Rd","City":"Harbor Springs","State":"MI","Zip_Code":"49740"}},{"type":"Feature","id":86,"geometry":{"type":"Point","coordinates":[-13313621.7438247,4342343.23244379]},"properties":{"OBJECTID":86,"Name":"County of Kings","TELEPHONE":"(559) 583-8829","Email":null,"Website":"www.countyofkings.com","NAICS_Code":562920,"Infra_Type":"MRF","Feedstock":null,"Street":"7803 Hanford Armona Rd","City":"Hanford","State":"CA","Zip_Code":"93230"}},{"type":"Feature","id":87,"geometry":{"type":"Point","coordinates":[-9113918.63010641,3078918.88458182]},"properties":{"OBJECTID":87,"Name":"County of Lee","TELEPHONE":null,"Email":null,"Website":"www.leegov.com","NAICS_Code":562920,"Infra_Type":"MRF","Feedstock":null,"Street":"1500 Monroe St","City":"Fort Myers","State":"FL","Zip_Code":"33901"}},{"type":"Feature","id":88,"geometry":{"type":"Point","coordinates":[-9952900.89561542,5724068.33564666]},"properties":{"OBJECTID":88,"Name":"County of Oneida","TELEPHONE":null,"Email":null,"Website":null,"NAICS_Code":562920,"Infra_Type":"MRF","Feedstock":null,"Street":"PO Box 695","City":"Rhinelander","State":"WI","Zip_Code":"54501"}},{"type":"Feature","id":89,"geometry":{"type":"Point","coordinates":[-10296007.0559795,5581232.52211937]},"properties":{"OBJECTID":89,"Name":"County of Pierce","TELEPHONE":null,"Email":null,"Website":null,"NAICS_Code":562920,"Infra_Type":"MRF","Feedstock":null,"Street":"707 N Maple St","City":"Ellsworth","State":"WI","Zip_Code":"54011"}},{"type":"Feature","id":90,"geometry":{"type":"Point","coordinates":[-10112324.2115787,5403675.93632983]},"properties":{"OBJECTID":90,"Name":"County of Vernon","TELEPHONE":null,"Email":null,"Website":null,"NAICS_Code":562920,"Infra_Type":"MRF","Feedstock":null,"Street":"S3705 County Road LF","City":"VIROQUA","State":"WI","Zip_Code":"54665"}},{"type":"Feature","id":91,"geometry":{"type":"Point","coordinates":[-9914866.5879752,5519860.55399507]},"properties":{"OBJECTID":91,"Name":"County of Waupaca","TELEPHONE":null,"Email":null,"Website":null,"NAICS_Code":562920,"Infra_Type":"MRF","Feedstock":null,"Street":"811 Harding St","City":"Waupaca","State":"WI","Zip_Code":"54981"}},{"type":"Feature","id":92,"geometry":{"type":"Point","coordinates":[-13135797.8741564,4001741.17893522]},"properties":{"OBJECTID":92,"Name":"CR&r Incorporated","TELEPHONE":"(714) 826-9049","Email":null,"Website":"www.crrwasteservices.com","NAICS_Code":562920,"Infra_Type":"MRF","Feedstock":null,"Street":"11292 Western Ave","City":"Stanton","State":"CA","Zip_Code":"90680"}},{"type":"Feature","id":93,"geometry":{"type":"Point","coordinates":[-13049622.6732545,3997835.35731447]},"properties":{"OBJECTID":93,"Name":"CR&r Incorporated","TELEPHONE":"(951) 634-8079","Email":null,"Website":"www.crrwasteservices.com","NAICS_Code":562920,"Infra_Type":"MRF","Feedstock":null,"Street":"1706 Goetz Rd","City":"Perris","State":"CA","Zip_Code":"92570"}},{"type":"Feature","id":94,"geometry":{"type":"Point","coordinates":[-9467248.55464545,4295675.05910915]},"properties":{"OBJECTID":94,"Name":"Cumberland County Recycling Center","TELEPHONE":null,"Email":null,"Website":null,"NAICS_Code":562920,"Infra_Type":"MRF","Feedstock":null,"Street":"96 Maryetta St","City":"Crossville","State":"TN","Zip_Code":"38555"}},{"type":"Feature","id":95,"geometry":{"type":"Point","coordinates":[-9192736.05789984,4251000.12004729]},"properties":{"OBJECTID":95,"Name":"Curbside Management, Inc.","TELEPHONE":null,"Email":null,"Website":null,"NAICS_Code":562920,"Infra_Type":"MRF","Feedstock":null,"Street":"116 N Woodfin Ave","City":"Asheville","State":"NC","Zip_Code":"28804"}},{"type":"Feature","id":96,"geometry":{"type":"Point","coordinates":[-8098951.369034,5107656.74901442]},"properties":{"OBJECTID":96,"Name":"CWPM, LLC","TELEPHONE":"(860) 828-1162","Email":null,"Website":"www.cwpm.net","NAICS_Code":562920,"Infra_Type":"MRF","Feedstock":null,"Street":"415 Christian Ln","City":"Berlin","State":"CT","Zip_Code":"06037"}},{"type":"Feature","id":97,"geometry":{"type":"Point","coordinates":[-9457205.75899016,4116007.18072966]},"properties":{"OBJECTID":97,"Name":"Dalton-Whitfield Solid Waste Authority Materials Recovery Facility","TELEPHONE":null,"Email":null,"Website":null,"NAICS_Code":562920,"Infra_Type":"MRF","Feedstock":null,"Street":"4305 Old Dixie Hwy SE","City":"Dalton","State":"GA","Zip_Code":"30721"}},{"type":"Feature","id":98,"geometry":{"type":"Point","coordinates":[-8222317.59607802,5008300.46499543]},"properties":{"OBJECTID":98,"Name":"Daniel P. Thomas Material Recovery Facility","TELEPHONE":null,"Email":null,"Website":null,"NAICS_Code":562920,"Infra_Type":"MRF","Feedstock":null,"Street":"1 A Stew Leonard Dr","City":"Yonkers","State":"NY","Zip_Code":"10710"}},{"type":"Feature","id":99,"geometry":{"type":"Point","coordinates":[-8354154.33028123,5185235.40661559]},"properties":{"OBJECTID":99,"Name":"Delaware County Solid Waste Management Center","TELEPHONE":null,"Email":null,"Website":null,"NAICS_Code":562920,"Infra_Type":"MRF","Feedstock":null,"Street":"32230 NY-10","City":"Walton","State":"NY","Zip_Code":"13856"}},{"type":"Feature","id":100,"geometry":{"type":"Point","coordinates":[-10417822.6355456,5584032.29979846]},"properties":{"OBJECTID":100,"Name":"Dem-Con Companies, LLC","TELEPHONE":null,"Email":null,"Website":null,"NAICS_Code":562920,"Infra_Type":"MRF","Feedstock":null,"Street":"13020 Dem Con Dr","City":"Shakopee","State":"MN","Zip_Code":"55379"}},{"type":"Feature","id":101,"geometry":{"type":"Point","coordinates":[-10102386.6141189,5236470.92976048]},"properties":{"OBJECTID":101,"Name":"Dittmer Recycling, Inc.","TELEPHONE":"(563) 583-3381","Email":null,"Website":"www.dittmerrecycling.com","NAICS_Code":562920,"Infra_Type":"MRF","Feedstock":null,"Street":"1755 Radford Rd","City":"Dubuque","State":"IA","Zip_Code":"52002"}},{"type":"Feature","id":102,"geometry":{"type":"Point","coordinates":[-9757761.28647833,5097288.60683403]},"properties":{"OBJECTID":102,"Name":"Diversified Recycling, Inc.","TELEPHONE":"(708) 798-1114","Email":null,"Website":"www.diversified-recycling.com","NAICS_Code":562920,"Infra_Type":"MRF","Feedstock":null,"Street":"17415 Ashland Ave","City":"East Hazel Crest","State":"IL","Zip_Code":"60429"}},{"type":"Feature","id":103,"geometry":{"type":"Point","coordinates":[-13148156.2263315,4018558.30879181]},"properties":{"OBJECTID":103,"Name":"Downey Area Recycling and Transfer (DART)","TELEPHONE":null,"Email":null,"Website":null,"NAICS_Code":562920,"Infra_Type":"MRF","Feedstock":null,"Street":"9770 Washburn Rd","City":"Downey","State":"CA","Zip_Code":"90241"}},{"type":"Feature","id":104,"geometry":{"type":"Point","coordinates":[-10237701.5775153,5604142.58266266]},"properties":{"OBJECTID":104,"Name":"Dunn County Transfer Station and Recycling Center","TELEPHONE":null,"Email":null,"Website":null,"NAICS_Code":562920,"Infra_Type":"MRF","Feedstock":null,"Street":"E3900 State Road 29","City":"Menomonie","State":"WI","Zip_Code":"54751"}},{"type":"Feature","id":105,"geometry":{"type":"Point","coordinates":[-12010681.0950049,4477451.07622415]},"properties":{"OBJECTID":105,"Name":"Durango Recycling Center","TELEPHONE":null,"Email":null,"Website":null,"NAICS_Code":562920,"Infra_Type":"MRF","Feedstock":null,"Street":"710 Tech Center Dr","City":"Durango","State":"CO","Zip_Code":"81301"}},{"type":"Feature","id":106,"geometry":{"type":"Point","coordinates":[-9035667.0341417,4553806.68066681]},"properties":{"OBJECTID":106,"Name":"E Paul Barley Regional Recycling Center","TELEPHONE":null,"Email":null,"Website":null,"NAICS_Code":562920,"Infra_Type":"MRF","Feedstock":null,"Street":"200 Fernandez Dr","City":"Beckley","State":"WV","Zip_Code":"25801"}},{"type":"Feature","id":107,"geometry":{"type":"Point","coordinates":[-7969503.46074924,5199373.94732631]},"properties":{"OBJECTID":107,"Name":"E.L. Harvey & Sons Inc.","TELEPHONE":"(800) 321-3002","Email":null,"Website":"www.elharvey.com","NAICS_Code":562920,"Infra_Type":"MRF","Feedstock":null,"Street":"68 Hopkinton Road","City":"Westborough","State":"MA","Zip_Code":"01581"}},{"type":"Feature","id":108,"geometry":{"type":"Point","coordinates":[-10021534.8248938,5036108.45265918]},"properties":{"OBJECTID":108,"Name":"Eagle Enterprises Recycling Inc","TELEPHONE":"(309) 932-2936","Email":null,"Website":"www.eerecycling.com","NAICS_Code":562920,"Infra_Type":"MRF","Feedstock":null,"Street":"510 SE Industrial Ave","City":"Galva","State":"IL","Zip_Code":"61434"}},{"type":"Feature","id":109,"geometry":{"type":"Point","coordinates":[-8416727.77059572,4632194.81825776]},"properties":{"OBJECTID":109,"Name":"Eagle Recycling, LLC","TELEPHONE":null,"Email":null,"Website":null,"NAICS_Code":562920,"Infra_Type":"MRF","Feedstock":null,"Street":"510 West Rd","City":"Salisbury","State":"MD","Zip_Code":"21801"}},{"type":"Feature","id":110,"geometry":{"type":"Point","coordinates":[-9936817.57259862,5768843.4710972]},"properties":{"OBJECTID":110,"Name":"Eagle Waste & Recycling, Inc.","TELEPHONE":null,"Email":null,"Website":null,"NAICS_Code":562920,"Infra_Type":"MRF","Feedstock":null,"Street":"701 Surgipath Rd","City":"Eagle River","State":"WI","Zip_Code":"54521"}},{"type":"Feature","id":111,"geometry":{"type":"Point","coordinates":[-9504348.02586726,4896004.57420702]},"properties":{"OBJECTID":111,"Name":"East Central Recycling","TELEPHONE":"(765) 254-5965","Email":null,"Website":"www.cairocafe.org","NAICS_Code":562920,"Infra_Type":"MRF","Feedstock":null,"Street":"701 E Centennial Ave","City":"Muncie","State":"IN","Zip_Code":"47303"}},{"type":"Feature","id":112,"geometry":{"type":"Point","coordinates":[-13053382.5968682,4039375.35495857]},"properties":{"OBJECTID":112,"Name":"East Valley Recycling & Transfer","TELEPHONE":null,"Email":null,"Website":null,"NAICS_Code":562920,"Infra_Type":"MRF","Feedstock":null,"Street":"1150 & 1250 S Tippecanoe Ave","City":"San Bernardino","State":"CA","Zip_Code":"92408"}},{"type":"Feature","id":113,"geometry":{"type":"Point","coordinates":[-8610691.85250955,4253037.65497586]},"properties":{"OBJECTID":113,"Name":"Eastern Carolina Vocational Center (ECVC)","TELEPHONE":null,"Email":null,"Website":null,"NAICS_Code":562920,"Infra_Type":"MRF","Feedstock":null,"Street":"901 Staton Road","City":"Greenville","State":"NC","Zip_Code":"27834"}},{"type":"Feature","id":114,"geometry":{"type":"Point","coordinates":[-7829603.73124148,5412207.16653938]},"properties":{"OBJECTID":114,"Name":"Eco Maine","TELEPHONE":null,"Email":null,"Website":null,"NAICS_Code":562920,"Infra_Type":"MRF","Feedstock":null,"Street":"64 Blueberry Rd","City":"Portland","State":"ME","Zip_Code":"04102"}},{"type":"Feature","id":115,"geometry":{"type":"Point","coordinates":[-9728879.55719347,3577258.7953979]},"properties":{"OBJECTID":115,"Name":"ECUA Materials Recycling Facility","TELEPHONE":null,"Email":null,"Website":null,"NAICS_Code":562920,"Infra_Type":"MRF","Feedstock":null,"Street":"13009 Beulah Rd","City":"Cantonment","State":"FL","Zip_Code":"32533"}},{"type":"Feature","id":116,"geometry":{"type":"Point","coordinates":[-9410626.92644615,5269534.6402182]},"properties":{"OBJECTID":116,"Name":"Emterra","TELEPHONE":null,"Email":null,"Website":null,"NAICS_Code":562920,"Infra_Type":"MRF","Feedstock":null,"Street":"1159 S Pennsylvania","City":"Lansing","State":"MI","Zip_Code":"48912"}},{"type":"Feature","id":117,"geometry":{"type":"Point","coordinates":[-13035372.8871868,3911693.79560774]},"properties":{"OBJECTID":117,"Name":"Escondido Resource Recovery","TELEPHONE":null,"Email":null,"Website":null,"NAICS_Code":562920,"Infra_Type":"MRF","Feedstock":null,"Street":"1044 W. Washington Ave","City":"Escondido","State":"CA","Zip_Code":"92025"}},{"type":"Feature","id":118,"geometry":{"type":"Point","coordinates":[-10377214.6244879,5620516.50987939]},"properties":{"OBJECTID":118,"Name":"Eureka Recycling","TELEPHONE":null,"Email":null,"Website":null,"NAICS_Code":562920,"Infra_Type":"MRF","Feedstock":null,"Street":"2828 Kennedy St Northeast","City":"Minneapolis","State":"MN","Zip_Code":"55413"}},{"type":"Feature","id":119,"geometry":{"type":"Point","coordinates":[-13682882.4121817,5699896.64972113]},"properties":{"OBJECTID":119,"Name":"Far West Recycling","TELEPHONE":null,"Email":null,"Website":null,"NAICS_Code":562920,"Infra_Type":"MRF","Feedstock":null,"Street":"6440 Southeast Alexander St","City":"Hillsboro","State":"OR","Zip_Code":"97123"}},{"type":"Feature","id":120,"geometry":{"type":"Point","coordinates":[-13640195.9521731,5709735.85221779]},"properties":{"OBJECTID":120,"Name":"Far West Recycling, Inc.","TELEPHONE":null,"Email":null,"Website":null,"NAICS_Code":562920,"Infra_Type":"MRF","Feedstock":null,"Street":"12820 Ne Marx St","City":"Portland","State":"OR","Zip_Code":"97230"}},{"type":"Feature","id":121,"geometry":{"type":"Point","coordinates":[-10603649.8222438,3481716.20815131]},"properties":{"OBJECTID":121,"Name":"FCC Environmental Services","TELEPHONE":null,"Email":null,"Website":null,"NAICS_Code":562920,"Infra_Type":"MRF","Feedstock":null,"Street":"9172 Ley Rd","City":"Houston","State":"TX","Zip_Code":"77078"}},{"type":"Feature","id":122,"geometry":{"type":"Point","coordinates":[-10765930.0374554,3853604.40150403]},"properties":{"OBJECTID":122,"Name":"FCC Environmental Services, LLC","TELEPHONE":null,"Email":null,"Website":null,"NAICS_Code":562920,"Infra_Type":"MRF","Feedstock":null,"Street":"5200 Simpson Stuart Rd","City":"Dallas","State":"TX","Zip_Code":"75241"}},{"type":"Feature","id":123,"geometry":{"type":"Point","coordinates":[-8360657.70198227,4853480.86560142]},"properties":{"OBJECTID":123,"Name":"FCR Camden Inc","TELEPHONE":null,"Email":null,"Website":null,"NAICS_Code":562920,"Infra_Type":"MRF","Feedstock":null,"Street":"2201 Mount Ephraim Ave","City":"Camden","State":"NJ","Zip_Code":"08104"}},{"type":"Feature","id":124,"geometry":{"type":"Point","coordinates":[-11066402.9414162,3184761.54583604]},"properties":{"OBJECTID":124,"Name":"First Recycling Llc.","TELEPHONE":null,"Email":null,"Website":null,"NAICS_Code":562920,"Infra_Type":"MRF","Feedstock":null,"Street":"6912 State Highway 359","City":"Laredo","State":"TX","Zip_Code":"78043"}},{"type":"Feature","id":125,"geometry":{"type":"Point","coordinates":[-10695045.0134332,5044632.416346]},"properties":{"OBJECTID":125,"Name":"First Star Recycling","TELEPHONE":"(402) 894-0003","Email":null,"Website":null,"NAICS_Code":562920,"Infra_Type":"MRF","Feedstock":null,"Street":"10330 I St Ste 100","City":"Omaha","State":"NE","Zip_Code":"68127"}},{"type":"Feature","id":126,"geometry":{"type":"Point","coordinates":[-12377381.7480696,5733931.52587983]},"properties":{"OBJECTID":126,"Name":"Four Corners Recycling, LLC","TELEPHONE":null,"Email":null,"Website":null,"NAICS_Code":562920,"Infra_Type":"MRF","Feedstock":null,"Street":"357 Recycle Way","City":"Bozeman","State":"MT","Zip_Code":"59718"}},{"type":"Feature","id":127,"geometry":{"type":"Point","coordinates":[-13579921.0628963,4510519.1375912]},"properties":{"OBJECTID":127,"Name":"Fremont Recycling & Transfer Station","TELEPHONE":null,"Email":null,"Website":"www.fremont-recycling.com","NAICS_Code":562920,"Infra_Type":"MRF","Feedstock":null,"Street":"41149 Boyce Rd","City":"Fremont","State":"CA","Zip_Code":"94538"}},{"type":"Feature","id":128,"geometry":{"type":"Point","coordinates":[-12356987.4587656,3799991.53526753]},"properties":{"OBJECTID":128,"Name":"Friedman Recycling Company","TELEPHONE":"(520) 696-0660","Email":null,"Website":"www.friedmanrecycling.com","NAICS_Code":562920,"Infra_Type":"MRF","Feedstock":null,"Street":"1825 W Price St","City":"Tucson","State":"AZ","Zip_Code":"85705"}},{"type":"Feature","id":129,"geometry":{"type":"Point","coordinates":[-11870070.8892905,4181829.15324856]},"properties":{"OBJECTID":129,"Name":"Friedman Recycling Company","TELEPHONE":null,"Email":null,"Website":null,"NAICS_Code":562920,"Infra_Type":"MRF","Feedstock":null,"Street":"5049 Edith Blvd Ne","City":"Albuquerque","State":"NM","Zip_Code":"87107"}},{"type":"Feature","id":130,"geometry":{"type":"Point","coordinates":[-12483192.1491639,3954246.04067352]},"properties":{"OBJECTID":130,"Name":"Friedman Recycling of El Paso, LP","TELEPHONE":"(602) 269-9324","Email":null,"Website":"www.friedmanrecycling.com","NAICS_Code":562920,"Infra_Type":"MRF","Feedstock":null,"Street":"3640 W Lincoln St","City":"Phoenix","State":"AZ","Zip_Code":"85009"}},{"type":"Feature","id":131,"geometry":{"type":"Point","coordinates":[-11844801.5840413,3747318.27045482]},"properties":{"OBJECTID":131,"Name":"Friedman Recycling of El Paso, LP","TELEPHONE":null,"Email":null,"Website":null,"NAICS_Code":562920,"Infra_Type":"MRF","Feedstock":null,"Street":"5835 Wren Ave","City":"El Paso","State":"TX","Zip_Code":"79924"}},{"type":"Feature","id":132,"geometry":{"type":"Point","coordinates":[-12943496.2416244,5401558.70817617]},"properties":{"OBJECTID":132,"Name":"Future Enterprises, Inc.","TELEPHONE":"(208) 375-8580","Email":null,"Website":"www.westernrecycling.net","NAICS_Code":562920,"Infra_Type":"MRF","Feedstock":null,"Street":"1990 S Cole Rd","City":"Boise","State":"ID","Zip_Code":"83709"}},{"type":"Feature","id":133,"geometry":{"type":"Point","coordinates":[-13693461.9332545,5616498.0797907]},"properties":{"OBJECTID":133,"Name":"Garten Services Recycling and Document Destruction","TELEPHONE":null,"Email":null,"Website":null,"NAICS_Code":562920,"Infra_Type":"MRF","Feedstock":null,"Street":"3334 Industrial Way NE","City":"Salem","State":"OR","Zip_Code":"97303"}},{"type":"Feature","id":134,"geometry":{"type":"Point","coordinates":[-10627213.9248808,3458683.79714167]},"properties":{"OBJECTID":134,"Name":"Gasmer Drive MRF","TELEPHONE":null,"Email":null,"Website":null,"NAICS_Code":562920,"Infra_Type":"MRF","Feedstock":null,"Street":"4939 Gasmer Dr","City":"Houston","State":"TX","Zip_Code":"77035"}},{"type":"Feature","id":135,"geometry":{"type":"Point","coordinates":[-9049149.05354582,3367571.72971381]},"properties":{"OBJECTID":135,"Name":"Gel Recycling, Inc.","TELEPHONE":"(386) 775-5385","Email":null,"Website":"www.gelrecycling.com","NAICS_Code":562920,"Infra_Type":"MRF","Feedstock":null,"Street":"1200 S Leavitt Ave","City":"Orange City","State":"FL","Zip_Code":"32763"}},{"type":"Feature","id":136,"geometry":{"type":"Point","coordinates":[-9036146.70634416,4322993.60601596]},"properties":{"OBJECTID":136,"Name":"GFL Wilkesboro","TELEPHONE":null,"Email":null,"Website":null,"NAICS_Code":562920,"Infra_Type":"MRF","Feedstock":null,"Street":"489 Boone Trail","City":"North Wilkesboro","State":"NC","Zip_Code":"28659"}},{"type":"Feature","id":137,"geometry":{"type":"Point","coordinates":[-13461435.2157198,4526354.4364346]},"properties":{"OBJECTID":137,"Name":"Gilton Resource Recovery","TELEPHONE":null,"Email":null,"Website":null,"NAICS_Code":562920,"Infra_Type":"MRF","Feedstock":null,"Street":"800 S McClure Rd","City":"Modesto","State":"CA","Zip_Code":"95357"}},{"type":"Feature","id":138,"geometry":{"type":"Point","coordinates":[-13164520.085932,4040784.49424282]},"properties":{"OBJECTID":138,"Name":"Glendale Recycling Center, Inc.","TELEPHONE":null,"Email":null,"Website":null,"NAICS_Code":562920,"Infra_Type":"MRF","Feedstock":null,"Street":"1850 Glendale Blvd","City":"Los Angeles","State":"CA","Zip_Code":"90026"}},{"type":"Feature","id":139,"geometry":{"type":"Point","coordinates":[-10260339.7303142,5630772.06620292]},"properties":{"OBJECTID":139,"Name":"Glenwood City Recycling Center","TELEPHONE":null,"Email":null,"Website":null,"NAICS_Code":562920,"Infra_Type":"MRF","Feedstock":null,"Street":"221 Water St","City":"Glenwood City","State":"WI","Zip_Code":"54013"}},{"type":"Feature","id":140,"geometry":{"type":"Point","coordinates":[-13263238.0974578,4066019.29259931]},"properties":{"OBJECTID":140,"Name":"Gold Coast Recycling Ctr Inc.","TELEPHONE":"(805) 659-2006","Email":null,"Website":null,"NAICS_Code":562920,"Infra_Type":"MRF","Feedstock":null,"Street":"1895 Lirio Ave","City":"Ventura","State":"CA","Zip_Code":"93004"}},{"type":"Feature","id":141,"geometry":{"type":"Point","coordinates":[-13127224.0506296,4029088.03804494]},"properties":{"OBJECTID":141,"Name":"Grand Central Recycling & Transfer Station, Inc.","TELEPHONE":"(626) 855-5538","Email":null,"Website":null,"NAICS_Code":562920,"Infra_Type":"MRF","Feedstock":null,"Street":"17445 Railroad St","City":"City of Industry","State":"CA","Zip_Code":"91748"}},{"type":"Feature","id":142,"geometry":{"type":"Point","coordinates":[-10155085.5970436,5444161.47163892]},"properties":{"OBJECTID":142,"Name":"Green Circle Recycling LLC","TELEPHONE":null,"Email":null,"Website":null,"NAICS_Code":562920,"Infra_Type":"MRF","Feedstock":null,"Street":"2850 Larson St","City":"La Crosse","State":"WI","Zip_Code":"54603"}},{"type":"Feature","id":143,"geometry":{"type":"Point","coordinates":[-10766255.7532494,4984199.45276604]},"properties":{"OBJECTID":143,"Name":"Green Quest Recycling","TELEPHONE":null,"Email":null,"Website":null,"NAICS_Code":562920,"Infra_Type":"MRF","Feedstock":null,"Street":"440 J St","City":"Lincoln","State":"NE","Zip_Code":"68508"}},{"type":"Feature","id":144,"geometry":{"type":"Point","coordinates":[-8402935.84158123,4966780.37476892]},"properties":{"OBJECTID":144,"Name":"Greenstar Allentown, LLC","TELEPHONE":null,"Email":null,"Website":null,"NAICS_Code":562920,"Infra_Type":"MRF","Feedstock":null,"Street":"799 Smith Ln","City":"Northampton","State":"PA","Zip_Code":"18067"}},{"type":"Feature","id":145,"geometry":{"type":"Point","coordinates":[-9069466.52326312,5017098.07035926]},"properties":{"OBJECTID":145,"Name":"Greenstar Mid-America, LLC","TELEPHONE":null,"Email":null,"Website":null,"NAICS_Code":562920,"Infra_Type":"MRF","Feedstock":null,"Street":"1535 Exeter Rd","City":"Akron","State":"OH","Zip_Code":"44306"}},{"type":"Feature","id":146,"geometry":{"type":"Point","coordinates":[-10951790.954605,3429423.13547593]},"properties":{"OBJECTID":146,"Name":"Greenstar Mid-America, LLC","TELEPHONE":null,"Email":null,"Website":null,"NAICS_Code":562920,"Infra_Type":"MRF","Feedstock":null,"Street":"5610 FM 1346","City":"San Antonio","State":"TX","Zip_Code":"78220"}},{"type":"Feature","id":147,"geometry":{"type":"Point","coordinates":[-8918535.667193,4940386.9656368]},"properties":{"OBJECTID":147,"Name":"Greenstar Pittsburgh, LLC","TELEPHONE":null,"Email":null,"Website":null,"NAICS_Code":562920,"Infra_Type":"MRF","Feedstock":null,"Street":"4100 Grand Ave","City":"Pittsburgh","State":"PA","Zip_Code":"15225"}},{"type":"Feature","id":148,"geometry":{"type":"Point","coordinates":[-10638693.3072144,3476790.12629983]},"properties":{"OBJECTID":148,"Name":"Greenstar Recycling, LLC","TELEPHONE":null,"Email":null,"Website":null,"NAICS_Code":562920,"Infra_Type":"MRF","Feedstock":null,"Street":"1200 Brittmoore Rd","City":"Houston","State":"TX","Zip_Code":"77043"}},{"type":"Feature","id":149,"geometry":{"type":"Point","coordinates":[-9601877.03665068,5108087.55916708]},"properties":{"OBJECTID":149,"Name":"GreenTech Transfer & Recycling, LLC","TELEPHONE":null,"Email":null,"Website":null,"NAICS_Code":562920,"Infra_Type":"MRF","Feedstock":null,"Street":"2500 Green Tech Drive","City":"South Bend","State":"IN","Zip_Code":"46613"}},{"type":"Feature","id":150,"geometry":{"type":"Point","coordinates":[-13569548.3662685,4490556.52365952]},"properties":{"OBJECTID":150,"Name":"Greenwaste Recovery","TELEPHONE":null,"Email":null,"Website":null,"NAICS_Code":562920,"Infra_Type":"MRF","Feedstock":null,"Street":"610 E Gish Rd","City":"San Jose","State":"CA","Zip_Code":"95112"}},{"type":"Feature","id":151,"geometry":{"type":"Point","coordinates":[-9136478.63832306,4054928.16389838]},"properties":{"OBJECTID":151,"Name":"Greenwood County Recycling Center","TELEPHONE":null,"Email":null,"Website":null,"NAICS_Code":562920,"Infra_Type":"MRF","Feedstock":null,"Street":"1119 Siloam Church Rd","City":"Greenwood","State":"SC","Zip_Code":"29646"}},{"type":"Feature","id":152,"geometry":{"type":"Point","coordinates":[-7901455.38695598,5244264.53179908]},"properties":{"OBJECTID":152,"Name":"Greenworks Park, LLC","TELEPHONE":null,"Email":null,"Website":"www.greenworksrecycles.com","NAICS_Code":562920,"Infra_Type":"MRF","Feedstock":null,"Street":"265 Newbury St","City":"Peabody","State":"MA","Zip_Code":"01960"}},{"type":"Feature","id":153,"geometry":{"type":"Point","coordinates":[-9789439.03853592,5161140.49515204]},"properties":{"OBJECTID":153,"Name":"Groot Industries","TELEPHONE":null,"Email":null,"Website":null,"NAICS_Code":562920,"Infra_Type":"MRF","Feedstock":null,"Street":"1759 Elmhurst Rd","City":"Elk Grove Village","State":"IL","Zip_Code":"60007"}},{"type":"Feature","id":154,"geometry":{"type":"Point","coordinates":[-10604938.3441464,4729038.28910941]},"properties":{"OBJECTID":154,"Name":"HAMM Material Recovery Facility","TELEPHONE":null,"Email":null,"Website":null,"NAICS_Code":562920,"Infra_Type":"MRF","Feedstock":null,"Street":"16984 3rd St","City":"Lawrence","State":"KS","Zip_Code":"66044"}},{"type":"Feature","id":155,"geometry":{"type":"Point","coordinates":[-7998937.70695695,5246256.7714579]},"properties":{"OBJECTID":155,"Name":"Harvey Recycling of Fitchburg, LLC","TELEPHONE":"(978) 342-2200","Email":null,"Website":"www.elharvey.com","NAICS_Code":562920,"Infra_Type":"MRF","Feedstock":null,"Street":"50 Arbor Way","City":"Fitchburg","State":"MA","Zip_Code":"01420"}},{"type":"Feature","id":156,"geometry":{"type":"Point","coordinates":[-13411565.0839834,4152990.6064394]},"properties":{"OBJECTID":156,"Name":"Health Sanitation Service Recycling Center","TELEPHONE":null,"Email":null,"Website":null,"NAICS_Code":562920,"Infra_Type":"MRF","Feedstock":null,"Street":"1850 W. Betteravia Road","City":"Santa Maria","State":"CA","Zip_Code":"93455"}},{"type":"Feature","id":157,"geometry":{"type":"Point","coordinates":[-9771264.22530225,5132177.49784214]},"properties":{"OBJECTID":157,"Name":"Heartland Recycling LLC","TELEPHONE":"(708) 458-4300","Email":null,"Website":"www.lrsrecycles.com","NAICS_Code":562920,"Infra_Type":"MRF","Feedstock":null,"Street":"6201 Canal Bank Rd","City":"Forest View","State":"IL","Zip_Code":"60402"}},{"type":"Feature","id":158,"geometry":{"type":"Point","coordinates":[-8895850.31046093,4293301.674241]},"properties":{"OBJECTID":158,"Name":"High Point MRF","TELEPHONE":null,"Email":null,"Website":null,"NAICS_Code":562920,"Infra_Type":"MRF","Feedstock":null,"Street":"5875 Riverdale Dr","City":"Jamestown","State":"NC","Zip_Code":"27282"}},{"type":"Feature","id":159,"geometry":{"type":"Point","coordinates":[-10157516.9234328,5453252.38931146]},"properties":{"OBJECTID":159,"Name":"Hilltopper Refuse & Recycling Service Inc","TELEPHONE":null,"Email":null,"Website":null,"NAICS_Code":562920,"Infra_Type":"MRF","Feedstock":null,"Street":"W6833 Industrial Blvd","City":"Onalaska","State":"WI","Zip_Code":"54650"}},{"type":"Feature","id":160,"geometry":{"type":"Point","coordinates":[-8783647.16307139,4003593.03484418]},"properties":{"OBJECTID":160,"Name":"Horry County MRF","TELEPHONE":null,"Email":null,"Website":null,"NAICS_Code":562920,"Infra_Type":"MRF","Feedstock":null,"Street":"511 Three R Drive","City":"Conway","State":"SC","Zip_Code":"29526"}},{"type":"Feature","id":161,"geometry":{"type":"Point","coordinates":[-11716571.2190855,4637628.82485592]},"properties":{"OBJECTID":161,"Name":"Howard Disposal and Recycling","TELEPHONE":null,"Email":null,"Website":null,"NAICS_Code":562920,"Infra_Type":"MRF","Feedstock":null,"Street":"2100 Forge Road","City":"Canon City","State":"CO","Zip_Code":"81212"}},{"type":"Feature","id":162,"geometry":{"type":"Point","coordinates":[-8231534.66039855,5088674.57690843]},"properties":{"OBJECTID":162,"Name":"Hudson Baylar Beacon LLC","TELEPHONE":null,"Email":null,"Website":null,"NAICS_Code":562920,"Infra_Type":"MRF","Feedstock":null,"Street":"508 Fishkill Ave","City":"Beacon","State":"NY","Zip_Code":"12508"}},{"type":"Feature","id":163,"geometry":{"type":"Point","coordinates":[-9758582.2660695,5138318.84770067]},"properties":{"OBJECTID":163,"Name":"Independent Recycling Services, Inc.","TELEPHONE":"(727) 573-9150","Email":null,"Website":"www.recyclingservicesofflorida.com","NAICS_Code":562920,"Infra_Type":"MRF","Feedstock":null,"Street":"2401 S Laflin St","City":"Chicago","State":"IL","Zip_Code":"60608"}},{"type":"Feature","id":164,"geometry":{"type":"Point","coordinates":[-10615267.3454715,3480494.00140517]},"properties":{"OBJECTID":164,"Name":"Independent Texas Recyclers, LLC","TELEPHONE":null,"Email":null,"Website":null,"NAICS_Code":562920,"Infra_Type":"MRF","Feedstock":null,"Street":"6810 Irvington Blvd","City":"Houston","State":"TX","Zip_Code":"77022"}},{"type":"Feature","id":165,"geometry":{"type":"Point","coordinates":[-8999267.7729062,4243876.34971783]},"properties":{"OBJECTID":165,"Name":"Iredell County Transfer Station","TELEPHONE":null,"Email":null,"Website":null,"NAICS_Code":562920,"Infra_Type":"MRF","Feedstock":null,"Street":"158 Macleod Dr","City":"Mooresville","State":"NC","Zip_Code":"28117"}},{"type":"Feature","id":166,"geometry":{"type":"Point","coordinates":[-8135649.45946358,4979723.61619785]},"properties":{"OBJECTID":166,"Name":"Islip Recycle Center","TELEPHONE":null,"Email":null,"Website":null,"NAICS_Code":562920,"Infra_Type":"MRF","Feedstock":null,"Street":"1155 Lincoln Ave","City":"Bohemia","State":"NY","Zip_Code":"11716"}},{"type":"Feature","id":167,"geometry":{"type":"Point","coordinates":[-8528212.57600534,5006647.62712318]},"properties":{"OBJECTID":167,"Name":"Jaws Recycling","TELEPHONE":null,"Email":null,"Website":null,"NAICS_Code":562920,"Infra_Type":"MRF","Feedstock":null,"Street":"531 Railroad St","City":"Danville","State":"PA","Zip_Code":"17821"}},{"type":"Feature","id":168,"geometry":{"type":"Point","coordinates":[-9877038.56327224,5289975.17947982]},"properties":{"OBJECTID":168,"Name":"JOHNS DISPOSAL SERVICE INC - WHITEWATER","TELEPHONE":null,"Email":null,"Website":null,"NAICS_Code":562920,"Infra_Type":"MRF","Feedstock":null,"Street":"107 County Rd U","City":"Whitewater","State":"WI","Zip_Code":"53190"}},{"type":"Feature","id":169,"geometry":{"type":"Point","coordinates":[-9804078.54265502,5284480.16330262]},"properties":{"OBJECTID":169,"Name":"Johns Recycling Inc","TELEPHONE":null,"Email":null,"Website":null,"NAICS_Code":562920,"Infra_Type":"MRF","Feedstock":null,"Street":"7311 Omega Cir","City":"Franksville","State":"WI","Zip_Code":"53126"}},{"type":"Feature","id":170,"geometry":{"type":"Point","coordinates":[-13643888.3029158,5686275.46131659]},"properties":{"OBJECTID":170,"Name":"Kahut Waste Services LLC","TELEPHONE":null,"Email":null,"Website":null,"NAICS_Code":562920,"Infra_Type":"MRF","Feedstock":null,"Street":"9602 SE Clackamas Rd","City":"Clackamas","State":"OR","Zip_Code":"97015"}},{"type":"Feature","id":171,"geometry":{"type":"Point","coordinates":[-10505302.2979837,4678757.83683699]},"properties":{"OBJECTID":171,"Name":"Kansas City MRF","TELEPHONE":null,"Email":null,"Website":null,"NAICS_Code":562920,"Infra_Type":"MRF","Feedstock":null,"Street":"19212 E 231st St","City":"Harrisonville","State":"MO","Zip_Code":"64701"}},{"type":"Feature","id":172,"geometry":{"type":"Point","coordinates":[-9539191.14355926,5305441.11501055]},"properties":{"OBJECTID":172,"Name":"Kent County Recycling and Education Center","TELEPHONE":null,"Email":null,"Website":null,"NAICS_Code":562920,"Infra_Type":"MRF","Feedstock":null,"Street":"977 Wealthy St SW","City":"Grand Rapids","State":"MI","Zip_Code":"49503"}},{"type":"Feature","id":173,"geometry":{"type":"Point","coordinates":[-9069617.47519723,5056813.42201892]},"properties":{"OBJECTID":173,"Name":"Kimble Twinsburg Recycling Center & Transfer Station","TELEPHONE":null,"Email":null,"Website":null,"NAICS_Code":562920,"Infra_Type":"MRF","Feedstock":null,"Street":"8500 Chamberlin Rd","City":"Twinsburg","State":"OH","Zip_Code":"44087"}},{"type":"Feature","id":174,"geometry":{"type":"Point","coordinates":[-9762725.13061083,5136159.68645566]},"properties":{"OBJECTID":174,"Name":"Lakeshore Recycling Systems, LLC","TELEPHONE":null,"Email":null,"Website":"www.lrsrecycles.com","NAICS_Code":562920,"Infra_Type":"MRF","Feedstock":null,"Street":"3152 S California Ave","City":"Chicago","State":"IL","Zip_Code":"60608"}},{"type":"Feature","id":175,"geometry":{"type":"Point","coordinates":[-9408331.0723731,4587476.60908516]},"properties":{"OBJECTID":175,"Name":"LFUCG Regional Recycling Facility","TELEPHONE":null,"Email":null,"Website":null,"NAICS_Code":562920,"Infra_Type":"MRF","Feedstock":null,"Street":"360 Thompson Rd","City":"Lexington","State":"KY","Zip_Code":"40508"}},{"type":"Feature","id":176,"geometry":{"type":"Point","coordinates":[-8562545.94866631,5034726.49150245]},"properties":{"OBJECTID":176,"Name":"Lycoming County Recycling Center","TELEPHONE":null,"Email":null,"Website":null,"NAICS_Code":562920,"Infra_Type":"MRF","Feedstock":null,"Street":"447 Alexander Drive","City":"Montgomery","State":"PA","Zip_Code":"17752"}},{"type":"Feature","id":177,"geometry":{"type":"Point","coordinates":[-9952680.70994718,5318334.87631175]},"properties":{"OBJECTID":177,"Name":"Madison Recycling Center","TELEPHONE":null,"Email":null,"Website":null,"NAICS_Code":562920,"Infra_Type":"MRF","Feedstock":null,"Street":"2200 Fish Hatchery Rd","City":"Madison","State":"WI","Zip_Code":"53713"}},{"type":"Feature","id":178,"geometry":{"type":"Point","coordinates":[-9764258.10731138,5486173.14934262]},"properties":{"OBJECTID":178,"Name":"Manitowoc County Recycling","TELEPHONE":null,"Email":null,"Website":null,"NAICS_Code":562920,"Infra_Type":"MRF","Feedstock":null,"Street":"3000 Basswood Rd","City":"Manitowoc","State":"WI","Zip_Code":"54220"}},{"type":"Feature","id":179,"geometry":{"type":"Point","coordinates":[-10475351.6791419,4351398.30720721]},"properties":{"OBJECTID":179,"Name":"Marck Industries, Inc.","TELEPHONE":"(479) 636-2346","Email":null,"Website":"www.marck.net","NAICS_Code":562920,"Infra_Type":"MRF","Feedstock":null,"Street":"3507 N Arkansas St","City":"Rogers","State":"AR","Zip_Code":"72756"}},{"type":"Feature","id":180,"geometry":{"type":"Point","coordinates":[-13637157.0391172,4572940.60388479]},"properties":{"OBJECTID":180,"Name":"Marin Recycling & Resource Recovery Association, Inc","TELEPHONE":"(415) 453-1404","Email":null,"Website":"www.marinsanitaryservice.com","NAICS_Code":562920,"Infra_Type":"MRF","Feedstock":null,"Street":"535 Jacoby St","City":"San Rafael","State":"CA","Zip_Code":"94901"}},{"type":"Feature","id":181,"geometry":{"type":"Point","coordinates":[-9380497.18912308,3549921.44092849]},"properties":{"OBJECTID":181,"Name":"Marpan Recycling, LLC","TELEPHONE":"(850) 216-1006","Email":null,"Website":"www.marpan.com","NAICS_Code":562920,"Infra_Type":"MRF","Feedstock":null,"Street":"6020 Woodville Hwy","City":"Tallahassee","State":"FL","Zip_Code":"32305"}},{"type":"Feature","id":182,"geometry":{"type":"Point","coordinates":[-9737288.81774264,5859139.90611265]},"properties":{"OBJECTID":182,"Name":"Marquette County Solid Waste Management Authority","TELEPHONE":null,"Email":null,"Website":null,"NAICS_Code":562920,"Infra_Type":"MRF","Feedstock":null,"Street":"600 Co Rd NP","City":"Marquette","State":"MI","Zip_Code":"49855"}},{"type":"Feature","id":183,"geometry":{"type":"Point","coordinates":[-8250168.60269423,4899612.9452967]},"properties":{"OBJECTID":183,"Name":"Mazza Recycling Services, Ltd.","TELEPHONE":null,"Email":null,"Website":null,"NAICS_Code":562920,"Infra_Type":"MRF","Feedstock":null,"Street":"3230A Shafto Rd","City":"Tinton Falls","State":"NJ","Zip_Code":"07753"}},{"type":"Feature","id":184,"geometry":{"type":"Point","coordinates":[-10502877.742865,5603867.61248846]},"properties":{"OBJECTID":184,"Name":"McLeod County Environmental Services","TELEPHONE":null,"Email":null,"Website":null,"NAICS_Code":562920,"Infra_Type":"MRF","Feedstock":null,"Street":"1065 5th Ave SE","City":"Hutchinson","State":"MN","Zip_Code":"55350"}},{"type":"Feature","id":185,"geometry":{"type":"Point","coordinates":[-10421084.9626892,5099657.07339078]},"properties":{"OBJECTID":185,"Name":"Metro Waste Authority","TELEPHONE":"(515) 323-6519","Email":null,"Website":"www.mwatoday.com","NAICS_Code":562920,"Infra_Type":"MRF","Feedstock":null,"Street":"300 E Locust St Ste 100","City":"Des Moines","State":"IA","Zip_Code":"50309"}},{"type":"Feature","id":186,"geometry":{"type":"Point","coordinates":[-8995202.95832932,4200236.42671383]},"properties":{"OBJECTID":186,"Name":"Metrolina Recycling Center","TELEPHONE":null,"Email":null,"Website":null,"NAICS_Code":562920,"Infra_Type":"MRF","Feedstock":null,"Street":"1007 Amble Dr","City":"Charlotte","State":"NC","Zip_Code":"28206"}},{"type":"Feature","id":187,"geometry":{"type":"Point","coordinates":[-13253416.6017977,4213906.40730046]},"properties":{"OBJECTID":187,"Name":"Metropolitan Recycling, LLC","TELEPHONE":"(661) 836-8380","Email":null,"Website":null,"NAICS_Code":562920,"Infra_Type":"MRF","Feedstock":null,"Street":"5001 Commerce Dr","City":"Bakersfield","State":"CA","Zip_Code":"93309"}},{"type":"Feature","id":188,"geometry":{"type":"Point","coordinates":[-9597784.49253095,5132717.3902002]},"properties":{"OBJECTID":188,"Name":"Michiana Recycling & Disposal Company","TELEPHONE":null,"Email":null,"Website":null,"NAICS_Code":562920,"Infra_Type":"MRF","Feedstock":null,"Street":"33541 Reum St","City":"Niles","State":"MI","Zip_Code":"49120"}},{"type":"Feature","id":189,"geometry":{"type":"Point","coordinates":[-10415540.4695976,5099422.21271201]},"properties":{"OBJECTID":189,"Name":"Mid America Recycling","TELEPHONE":"(515) 265-1208","Email":null,"Website":null,"NAICS_Code":562920,"Infra_Type":"MRF","Feedstock":null,"Street":"2742 E Market St","City":"Des Moines","State":"IA","Zip_Code":"50317"}},{"type":"Feature","id":190,"geometry":{"type":"Point","coordinates":[-13501085.5525495,5479185.344331]},"properties":{"OBJECTID":190,"Name":"Mid Oregon Recycling","TELEPHONE":null,"Email":null,"Website":null,"NAICS_Code":562920,"Infra_Type":"MRF","Feedstock":null,"Street":"20835 Montana Way","City":"Bend","State":"OR","Zip_Code":"97701"}},{"type":"Feature","id":191,"geometry":{"type":"Point","coordinates":[-13334897.3449739,4397667.09443183]},"properties":{"OBJECTID":191,"Name":"Mid-Valley Recycling, LLC","TELEPHONE":"(559) 268-0078","Email":null,"Website":null,"NAICS_Code":562920,"Infra_Type":"MRF","Feedstock":null,"Street":"2721 S Elm Ave","City":"Fresno","State":"CA","Zip_Code":"93706"}},{"type":"Feature","id":192,"geometry":{"type":"Point","coordinates":[-9910013.84439156,4938994.78439974]},"properties":{"OBJECTID":192,"Name":"Midwest Fiber Recycling of Peoria, Inc.","TELEPHONE":"(309) 452-0064","Email":null,"Website":"www.midwest-fiber.com","NAICS_Code":562920,"Infra_Type":"MRF","Feedstock":null,"Street":"422 S White Oak Rd","City":"Normal","State":"IL","Zip_Code":"61761"}},{"type":"Feature","id":193,"geometry":{"type":"Point","coordinates":[-10767217.6729423,5402330.66308273]},"properties":{"OBJECTID":193,"Name":"Millennium Recycling, Inc.","TELEPHONE":null,"Email":null,"Website":null,"NAICS_Code":562920,"Infra_Type":"MRF","Feedstock":null,"Street":"305 E 50th St N","City":"Sioux Falls","State":"SD","Zip_Code":"57104"}},{"type":"Feature","id":194,"geometry":{"type":"Point","coordinates":[-13561542.6045973,4381128.32498267]},"properties":{"OBJECTID":194,"Name":"Monterey City Disposal and MRF","TELEPHONE":null,"Email":null,"Website":null,"NAICS_Code":562920,"Infra_Type":"MRF","Feedstock":null,"Street":"10 Ryan Ranch Rd","City":"Monterey","State":"CA","Zip_Code":"93940"}},{"type":"Feature","id":195,"geometry":{"type":"Point","coordinates":[-13557333.447445,4400254.46777165]},"properties":{"OBJECTID":195,"Name":"Monterey Regional Waste Management District","TELEPHONE":null,"Email":null,"Website":null,"NAICS_Code":562920,"Infra_Type":"MRF","Feedstock":null,"Street":"14201 Del Monte Blvd","City":"Marina","State":"CA","Zip_Code":"93933"}},{"type":"Feature","id":196,"geometry":{"type":"Point","coordinates":[-8590474.11855832,4738909.01243479]},"properties":{"OBJECTID":196,"Name":"Montgomery County Recycling","TELEPHONE":null,"Email":null,"Website":null,"NAICS_Code":562920,"Infra_Type":"MRF","Feedstock":null,"Street":"16105 Frederick Rd","City":"Derwood","State":"MD","Zip_Code":"20855"}},{"type":"Feature","id":197,"geometry":{"type":"Point","coordinates":[-13565178.5233152,4582091.00509361]},"properties":{"OBJECTID":197,"Name":"Mt. Diablo Paper Stock Inc.","TELEPHONE":"(925) 682-4518","Email":null,"Website":"www.mdrr.com","NAICS_Code":562920,"Infra_Type":"MRF","Feedstock":null,"Street":"1300 Loveridge Rd","City":"Pittsburg","State":"CA","Zip_Code":"94565"}},{"type":"Feature","id":198,"geometry":{"type":"Point","coordinates":[-8447590.26535285,5046029.88498786]},"properties":{"OBJECTID":198,"Name":"Municipal Recovery, Inc.","TELEPHONE":null,"Email":null,"Website":null,"NAICS_Code":562920,"Infra_Type":"MRF","Feedstock":null,"Street":"495 Stanton St","City":"Wilkes Barre","State":"PA","Zip_Code":"18702"}},{"type":"Feature","id":199,"geometry":{"type":"Point","coordinates":[-13610420.6598445,4609077.15717787]},"properties":{"OBJECTID":199,"Name":"NAPA Recycling & Waste Services LLC","TELEPHONE":"(707) 255-5200","Email":null,"Website":"www.naparecycling.com","NAICS_Code":562920,"Infra_Type":"MRF","Feedstock":null,"Street":"820 Levitin Way","City":"American Canyon","State":"CA","Zip_Code":"94559"}},{"type":"Feature","id":200,"geometry":{"type":"Point","coordinates":[-10711094.0554878,5047694.99152966]},"properties":{"OBJECTID":200,"Name":"Nebraskaland Recycling, LLC","TELEPHONE":null,"Email":null,"Website":null,"NAICS_Code":562920,"Infra_Type":"MRF","Feedstock":null,"Street":"2041 S 195th St","City":"Omaha","State":"NE","Zip_Code":"68130"}},{"type":"Feature","id":201,"geometry":{"type":"Point","coordinates":[-13534004.0367503,4742966.88601857]},"properties":{"OBJECTID":201,"Name":"Norcal Waste-Marysville","TELEPHONE":"(530) 743-0424","Email":null,"Website":"www.yubasutterrecycles.com","NAICS_Code":562920,"Infra_Type":"MRF","Feedstock":null,"Street":"3001 N Levee Rd","City":"Marysville","State":"CA","Zip_Code":"95901"}},{"type":"Feature","id":202,"geometry":{"type":"Point","coordinates":[-9121530.25996697,3962806.98708886]},"properties":{"OBJECTID":202,"Name":"North Augusta MRF","TELEPHONE":null,"Email":null,"Website":null,"NAICS_Code":562920,"Infra_Type":"MRF","Feedstock":null,"Street":"67 Claypit Rd","City":"North August","State":"SC","Zip_Code":"29841"}},{"type":"Feature","id":203,"geometry":{"type":"Point","coordinates":[-8933086.49923262,4284636.91219426]},"properties":{"OBJECTID":203,"Name":"North Davidson Garbage Service, Inc","TELEPHONE":null,"Email":null,"Website":null,"NAICS_Code":562920,"Infra_Type":"MRF","Feedstock":null,"Street":"4157 Old US Hwy 52","City":"Lexington","State":"NC","Zip_Code":"27295"}},{"type":"Feature","id":204,"geometry":{"type":"Point","coordinates":[-9076074.0061025,3528751.64763223]},"properties":{"OBJECTID":204,"Name":"North Florida Recycling Inc","TELEPHONE":"(904) 910-3302","Email":null,"Website":"www.northfloridarecycling.com","NAICS_Code":562920,"Infra_Type":"MRF","Feedstock":null,"Street":"9104 Woodjack CT","City":"Jacksonville","State":"FL","Zip_Code":"32256"}},{"type":"Feature","id":205,"geometry":{"type":"Point","coordinates":[-12480755.0925406,3996253.22198788]},"properties":{"OBJECTID":205,"Name":"North Gateway Transfer Station and MRF","TELEPHONE":"(623) 869-5010","Email":null,"Website":"www.republicservices.com","NAICS_Code":562920,"Infra_Type":"MRF","Feedstock":null,"Street":"30205 N Black Canyon Hwy","City":"Phoenix","State":"AZ","Zip_Code":"85085"}},{"type":"Feature","id":206,"geometry":{"type":"Point","coordinates":[-13043311.2999236,3878965.80082227]},"properties":{"OBJECTID":206,"Name":"North San Diego MRF","TELEPHONE":"(858) 578-9300","Email":null,"Website":"www.allancompany.com","NAICS_Code":562920,"Infra_Type":"MRF","Feedstock":null,"Street":"6733 Consolidated Way","City":"San Diego","State":"CA","Zip_Code":"92121"}},{"type":"Feature","id":207,"geometry":{"type":"Point","coordinates":[-8453192.25110412,5045931.88925691]},"properties":{"OBJECTID":207,"Name":"Northeast Cartage and Recycling Solutions","TELEPHONE":null,"Email":null,"Website":null,"NAICS_Code":562920,"Infra_Type":"MRF","Feedstock":null,"Street":"50 Breaker Rd","City":"Hanover Township","State":"PA","Zip_Code":"18706"}},{"type":"Feature","id":208,"geometry":{"type":"Point","coordinates":[-13634919.735136,6233373.73649174]},"properties":{"OBJECTID":208,"Name":"Northwest Recycling, Inc.","TELEPHONE":null,"Email":null,"Website":null,"NAICS_Code":562920,"Infra_Type":"MRF","Feedstock":null,"Street":"1419 C St","City":"Bellingham","State":"WA","Zip_Code":"98225"}},{"type":"Feature","id":209,"geometry":{"type":"Point","coordinates":[-12426611.2344977,4190051.83443355]},"properties":{"OBJECTID":209,"Name":"Norton Environmental, Inc.","TELEPHONE":"(928) 556-9900","Email":null,"Website":"www.nortonenvironmentalinc.com","NAICS_Code":562920,"Infra_Type":"MRF","Feedstock":null,"Street":"1800 E Butler Ave","City":"Flagstaff","State":"AZ","Zip_Code":"86001"}},{"type":"Feature","id":210,"geometry":{"type":"Point","coordinates":[-8138479.24986273,5055234.27389733]},"properties":{"OBJECTID":210,"Name":"Oak Ridge Waste & Recycling","TELEPHONE":null,"Email":null,"Website":null,"NAICS_Code":562920,"Infra_Type":"MRF","Feedstock":null,"Street":"46/90 Oliver Terrace","City":"Shelton","State":"CT","Zip_Code":"06484"}},{"type":"Feature","id":211,"geometry":{"type":"Point","coordinates":[-8363975.13619236,4829156.80724207]},"properties":{"OBJECTID":211,"Name":"Omni Recycling LLC","TELEPHONE":null,"Email":null,"Website":null,"NAICS_Code":562920,"Infra_Type":"MRF","Feedstock":null,"Street":"408 Lambs Rd","City":"Pitman","State":"NJ","Zip_Code":"08071"}},{"type":"Feature","id":212,"geometry":{"type":"Point","coordinates":[-8372564.98577235,5328250.1258684]},"properties":{"OBJECTID":212,"Name":"Oneida-Herkimer Solid Waste Authority Recycling Center","TELEPHONE":null,"Email":null,"Website":null,"NAICS_Code":562920,"Infra_Type":"MRF","Feedstock":null,"Street":"80 Leland Ave","City":"Utica","State":"NY","Zip_Code":"13502"}},{"type":"Feature","id":213,"geometry":{"type":"Point","coordinates":[-8579486.90056815,5286384.9949329]},"properties":{"OBJECTID":213,"Name":"Ontario County Recycling","TELEPHONE":null,"Email":null,"Website":null,"NAICS_Code":562920,"Infra_Type":"MRF","Feedstock":null,"Street":"1879 County Road 5","City":"Stanley","State":"NY","Zip_Code":"14561"}},{"type":"Feature","id":214,"geometry":{"type":"Point","coordinates":[-9833413.67825301,5510395.43374112]},"properties":{"OBJECTID":214,"Name":"Outagamie County Dept of Solid Waste/Recycling","TELEPHONE":null,"Email":null,"Website":null,"NAICS_Code":562920,"Infra_Type":"MRF","Feedstock":null,"Street":"1419 Holland Rd","City":"Appleton","State":"WI","Zip_Code":"54911"}},{"type":"Feature","id":215,"geometry":{"type":"Point","coordinates":[-13661426.5047416,4635221.62256862]},"properties":{"OBJECTID":215,"Name":"Pacific Coast Disposal Inc","TELEPHONE":"(707) 884-3886","Email":null,"Website":"www.recology.com","NAICS_Code":562920,"Infra_Type":"MRF","Feedstock":null,"Street":"3400 Standish Ave","City":"Santa Rosa","State":"CA","Zip_Code":"95407"}},{"type":"Feature","id":216,"geometry":{"type":"Point","coordinates":[-13715183.3175416,4751252.14754721]},"properties":{"OBJECTID":216,"Name":"Pacific Recycling Solutions In","TELEPHONE":null,"Email":null,"Website":"www.candswaste.com","NAICS_Code":562920,"Infra_Type":"MRF","Feedstock":null,"Street":"4260 N State St","City":"Ukiah","State":"CA","Zip_Code":"95482"}},{"type":"Feature","id":217,"geometry":{"type":"Point","coordinates":[-13154851.3395039,4016343.13559445]},"properties":{"OBJECTID":217,"Name":"Paramount Resource Recycling","TELEPHONE":"(562) 602-6505","Email":null,"Website":"www.paramountcity.com","NAICS_Code":562920,"Infra_Type":"MRF","Feedstock":null,"Street":"7230 Petterson Ln","City":"Paramount","State":"CA","Zip_Code":"90723"}},{"type":"Feature","id":218,"geometry":{"type":"Point","coordinates":[-9946945.45218559,5318012.70246747]},"properties":{"OBJECTID":218,"Name":"Pellitteri Waste Systems LLC","TELEPHONE":null,"Email":null,"Website":null,"NAICS_Code":562920,"Infra_Type":"MRF","Feedstock":null,"Street":"7035 Raywood Rd","City":"Monona","State":"WI","Zip_Code":"53713"}},{"type":"Feature","id":219,"geometry":{"type":"Point","coordinates":[-13280887.8010522,4373994.15101089]},"properties":{"OBJECTID":219,"Name":"Pena's Disposal, Inc.","TELEPHONE":"(559) 528-3909","Email":null,"Website":"www.penasdisposal.com","NAICS_Code":562920,"Infra_Type":"MRF","Feedstock":null,"Street":"12094 Avenue 408","City":"Cutler","State":"CA","Zip_Code":"93615"}},{"type":"Feature","id":220,"geometry":{"type":"Point","coordinates":[-8540703.17207721,4871638.46457353]},"properties":{"OBJECTID":220,"Name":"Penn Waste","TELEPHONE":null,"Email":null,"Website":null,"NAICS_Code":562920,"Infra_Type":"MRF","Feedstock":null,"Street":"85 Brick Yard Road","City":"Manchester","State":"Changed street address from \"201 Railroad Avenue\" to \"201 Railroad Ave\"","Zip_Code":"17345"}},{"type":"Feature","id":221,"geometry":{"type":"Point","coordinates":[-8794713.66228688,4354652.44164275]},"properties":{"OBJECTID":221,"Name":"Person Industries","TELEPHONE":null,"Email":null,"Website":null,"NAICS_Code":562920,"Infra_Type":"MRF","Feedstock":null,"Street":"741 Martin St","City":"Roxboro","State":"NC","Zip_Code":"27573"}},{"type":"Feature","id":222,"geometry":{"type":"Point","coordinates":[-13640991.8881871,5684747.47193471]},"properties":{"OBJECTID":222,"Name":"Pioneer Recycling Services LLC","TELEPHONE":null,"Email":null,"Website":null,"NAICS_Code":562920,"Infra_Type":"MRF","Feedstock":null,"Street":"16810 SE 120th Ave","City":"Clackamas","State":"OR","Zip_Code":"97015"}},{"type":"Feature","id":223,"geometry":{"type":"Point","coordinates":[-13622692.4045371,5955757.71467251]},"properties":{"OBJECTID":223,"Name":"Pioneer Recycling Services LLC","TELEPHONE":null,"Email":null,"Website":null,"NAICS_Code":562920,"Infra_Type":"MRF","Feedstock":null,"Street":"4109 192nd St E","City":"Tacoma","State":"WA","Zip_Code":"98446"}},{"type":"Feature","id":224,"geometry":{"type":"Point","coordinates":[-13381820.620261,4762517.29637368]},"properties":{"OBJECTID":224,"Name":"Placer County Eastern Regional MRF","TELEPHONE":null,"Email":null,"Website":null,"NAICS_Code":562920,"Infra_Type":"MRF","Feedstock":null,"Street":"870 Cabin Creek Rd","City":"Truckee","State":"CA","Zip_Code":"96161"}},{"type":"Feature","id":225,"geometry":{"type":"Point","coordinates":[-9403865.03975043,4006300.320583]},"properties":{"OBJECTID":225,"Name":"Plant Atkinson Transfer Station MRF","TELEPHONE":null,"Email":null,"Website":null,"NAICS_Code":562920,"Infra_Type":"MRF","Feedstock":null,"Street":"207 Plant Atkinson Road","City":"Smyrna","State":"GA","Zip_Code":"30080"}},{"type":"Feature","id":226,"geometry":{"type":"Point","coordinates":[-10293440.8077849,5693391.95881863]},"properties":{"OBJECTID":226,"Name":"Polk County Recycling","TELEPHONE":null,"Email":null,"Website":null,"NAICS_Code":562920,"Infra_Type":"MRF","Feedstock":null,"Street":"100 Polk County Plz Ste 10","City":"Balsam Lake","State":"WI","Zip_Code":"54810"}},{"type":"Feature","id":227,"geometry":{"type":"Point","coordinates":[-10660042.8304275,6037634.29826271]},"properties":{"OBJECTID":227,"Name":"Polk County Solid Waste Management","TELEPHONE":null,"Email":null,"Website":null,"NAICS_Code":562920,"Infra_Type":"MRF","Feedstock":null,"Street":"708 8th St NW","City":"Fosston","State":"NM","Zip_Code":"56542"}},{"type":"Feature","id":228,"geometry":{"type":"Point","coordinates":[-13163690.19553,4000874.63803254]},"properties":{"OBJECTID":228,"Name":"Potential Industries Inc","TELEPHONE":null,"Email":null,"Website":null,"NAICS_Code":562920,"Infra_Type":"MRF","Feedstock":null,"Street":"915 E Colon St","City":"Wilmington","State":"CA","Zip_Code":"90744"}},{"type":"Feature","id":229,"geometry":{"type":"Point","coordinates":[-13163633.7541745,3998752.02531082]},"properties":{"OBJECTID":229,"Name":"Potential Industries, Inc.","TELEPHONE":"(310) 807-4466","Email":null,"Website":"www.potentialindustries.com","NAICS_Code":562920,"Infra_Type":"MRF","Feedstock":null,"Street":"922 E E St","City":"Wilmington","State":"CA","Zip_Code":"90744"}},{"type":"Feature","id":230,"geometry":{"type":"Point","coordinates":[-9033093.55465237,3769563.24531096]},"properties":{"OBJECTID":230,"Name":"Pratt Industries","TELEPHONE":null,"Email":null,"Website":null,"NAICS_Code":562920,"Infra_Type":"MRF","Feedstock":null,"Street":"101 Kahn Industrial Ct ste c","City":"Savannah","State":"GA","Zip_Code":"31405"}},{"type":"Feature","id":231,"geometry":{"type":"Point","coordinates":[-10807241.0321741,3921175.07270027]},"properties":{"OBJECTID":231,"Name":"Pratt Industries","TELEPHONE":null,"Email":null,"Website":null,"NAICS_Code":562920,"Infra_Type":"MRF","Feedstock":null,"Street":"1401 S Mayhill Rd","City":"Denton","State":"TX","Zip_Code":"76208"}},{"type":"Feature","id":232,"geometry":{"type":"Point","coordinates":[-8781597.44332086,4165283.40485709]},"properties":{"OBJECTID":232,"Name":"Pratt Industries","TELEPHONE":null,"Email":null,"Website":null,"NAICS_Code":562920,"Infra_Type":"MRF","Feedstock":null,"Street":"3686 Owen Drive","City":"Fayetteville","State":"NC","Zip_Code":"28306"}},{"type":"Feature","id":233,"geometry":{"type":"Point","coordinates":[-9014337.99611132,4159990.58100011]},"properties":{"OBJECTID":233,"Name":"Pratt Industries Inc","TELEPHONE":null,"Email":null,"Website":null,"NAICS_Code":562920,"Infra_Type":"MRF","Feedstock":null,"Street":"720 Celriver Rd","City":"Rock Hill","State":"SC","Zip_Code":"29730"}},{"type":"Feature","id":234,"geometry":{"type":"Point","coordinates":[-9145157.43213411,4150336.61808195]},"properties":{"OBJECTID":234,"Name":"Pratt Industries Recycling","TELEPHONE":null,"Email":null,"Website":null,"NAICS_Code":562920,"Infra_Type":"MRF","Feedstock":null,"Street":"255 Morley Ct","City":"Duncan","State":"SC","Zip_Code":"29334"}},{"type":"Feature","id":235,"geometry":{"type":"Point","coordinates":[-9349608.61705082,3983283.4251155]},"properties":{"OBJECTID":235,"Name":"Pratt Recycling, Inc.","TELEPHONE":"(678) 904-4165","Email":null,"Website":"www.prattindustries.com","NAICS_Code":562920,"Infra_Type":"MRF","Feedstock":null,"Street":"1800 Sarasot Bus Pkwy Ne C","City":"Conyers","State":"GA","Zip_Code":"30013"}},{"type":"Feature","id":236,"geometry":{"type":"Point","coordinates":[-12416146.4249516,3945998.69064214]},"properties":{"OBJECTID":236,"Name":"RAD Waste and Recycling Facility","TELEPHONE":null,"Email":null,"Website":null,"NAICS_Code":562920,"Infra_Type":"MRF","Feedstock":null,"Street":"3755 S Royal Palm Rd","City":"Apache Junction","State":"AZ","Zip_Code":"85119"}},{"type":"Feature","id":237,"geometry":{"type":"Point","coordinates":[-10442091.8399107,5629353.54364024]},"properties":{"OBJECTID":237,"Name":"Randy's Sanitation, Inc.","TELEPHONE":null,"Email":null,"Website":null,"NAICS_Code":562920,"Infra_Type":"MRF","Feedstock":null,"Street":"4351 Highway 12 SE","City":"Delano","State":"MN","Zip_Code":"55328"}},{"type":"Feature","id":238,"geometry":{"type":"Point","coordinates":[-9594416.73789925,4831648.21871621]},"properties":{"OBJECTID":238,"Name":"Ray's Indianapolis Recycling","TELEPHONE":"(317) 636-2024","Email":null,"Website":"www.raystrash.com","NAICS_Code":562920,"Infra_Type":"MRF","Feedstock":null,"Street":"200 S Harding St","City":"Indianapolis","State":"IN","Zip_Code":"46222"}},{"type":"Feature","id":239,"geometry":{"type":"Point","coordinates":[-8408273.25051967,4823228.6196796]},"properties":{"OBJECTID":239,"Name":"RE Community Holdings II, Inc.","TELEPHONE":null,"Email":null,"Website":"www.republicservices.com","NAICS_Code":562920,"Infra_Type":"MRF","Feedstock":null,"Street":"1101 Lambson Ln","City":"New Castle","State":"DE","Zip_Code":"19720"}},{"type":"Feature","id":240,"geometry":{"type":"Point","coordinates":[-10957530.358817,3432957.40511477]},"properties":{"OBJECTID":240,"Name":"RE Community Holdings II, Inc.","TELEPHONE":null,"Email":null,"Website":null,"NAICS_Code":562920,"Infra_Type":"MRF","Feedstock":null,"Street":"1947 Hormel Dr","City":"San Antonio","State":"TX","Zip_Code":"78219"}},{"type":"Feature","id":241,"geometry":{"type":"Point","coordinates":[-9266113.63631179,5227902.84858055]},"properties":{"OBJECTID":241,"Name":"RE Community Holdings II, Inc.","TELEPHONE":null,"Email":null,"Website":null,"NAICS_Code":562920,"Infra_Type":"MRF","Feedstock":null,"Street":"20000 W 8 Mile Rd","City":"Southfield","State":"MI","Zip_Code":"48075"}},{"type":"Feature","id":242,"geometry":{"type":"Point","coordinates":[-12481281.7926281,3950721.02891138]},"properties":{"OBJECTID":242,"Name":"RE Community Holdings II, Inc.","TELEPHONE":"(602) 501-2055","Email":null,"Website":"www.republicservices.com","NAICS_Code":562920,"Infra_Type":"MRF","Feedstock":null,"Street":"3060 S 27th Ave","City":"Phoenix","State":"AZ","Zip_Code":"85009"}},{"type":"Feature","id":243,"geometry":{"type":"Point","coordinates":[-9283580.99952449,5181238.30209361]},"properties":{"OBJECTID":243,"Name":"RE Community Holdings II, Inc.","TELEPHONE":null,"Email":null,"Website":null,"NAICS_Code":562920,"Infra_Type":"MRF","Feedstock":null,"Street":"36543 S Huron Rd","City":"New Boston","State":"MI","Zip_Code":"48164"}},{"type":"Feature","id":244,"geometry":{"type":"Point","coordinates":[-8919876.50628526,3093461.18619027]},"properties":{"OBJECTID":244,"Name":"RE Community Holdings II, Inc.","TELEPHONE":null,"Email":null,"Website":"www.republicservices.com","NAICS_Code":562920,"Infra_Type":"MRF","Feedstock":null,"Street":"5860 45th St","City":"West Palm Beach","State":"FL","Zip_Code":"33407"}},{"type":"Feature","id":245,"geometry":{"type":"Point","coordinates":[-8880449.25696902,4306073.43080155]},"properties":{"OBJECTID":245,"Name":"RE Community Recycling","TELEPHONE":null,"Email":null,"Website":null,"NAICS_Code":562920,"Infra_Type":"MRF","Feedstock":null,"Street":"706 Patton Ave","City":"Greensboro","State":"NC","Zip_Code":"27406"}},{"type":"Feature","id":246,"geometry":{"type":"Point","coordinates":[-13554299.2724254,5192258.26931809]},"properties":{"OBJECTID":246,"Name":"Reach Inc","TELEPHONE":null,"Email":null,"Website":null,"NAICS_Code":562920,"Infra_Type":"MRF","Feedstock":null,"Street":"2350 Maywood Dr","City":"Klamath Falls","State":"OR","Zip_Code":"97603"}},{"type":"Feature","id":247,"geometry":{"type":"Point","coordinates":[-13622887.0012851,4543227.32472831]},"properties":{"OBJECTID":247,"Name":"Recology","TELEPHONE":null,"Email":null,"Website":null,"NAICS_Code":562920,"Infra_Type":"MRF","Feedstock":null,"Street":"1000 Amador St.","City":"San Francisco","State":"CA","Zip_Code":"94124"}},{"type":"Feature","id":248,"geometry":{"type":"Point","coordinates":[-13619087.7716292,6034583.65453899]},"properties":{"OBJECTID":248,"Name":"Recology","TELEPHONE":null,"Email":null,"Website":null,"NAICS_Code":562920,"Infra_Type":"MRF","Feedstock":null,"Street":"7 S. Idaho St.","City":"Seattle","State":"WA","Zip_Code":"98134"}},{"type":"Feature","id":249,"geometry":{"type":"Point","coordinates":[-13609228.9811935,4599753.52732628]},"properties":{"OBJECTID":249,"Name":"Recology Vallejo","TELEPHONE":"(707) 552-3110","Email":null,"Website":"www.recology.com","NAICS_Code":562920,"Infra_Type":"MRF","Feedstock":null,"Street":"2021 Broadway St","City":"Vallejo","State":"CA","Zip_Code":"94589"}},{"type":"Feature","id":250,"geometry":{"type":"Point","coordinates":[-8323242.19098686,4755161.34990967]},"properties":{"OBJECTID":250,"Name":"ReCommunity Cape May Materials Recovery","TELEPHONE":null,"Email":null,"Website":null,"NAICS_Code":562920,"Infra_Type":"MRF","Feedstock":null,"Street":"2046 County Highway 610","City":"Woodbine","State":"NJ","Zip_Code":"08270"}},{"type":"Feature","id":251,"geometry":{"type":"Point","coordinates":[-8304691.82920563,4995382.47550233]},"properties":{"OBJECTID":251,"Name":"Recommunity Corporation","TELEPHONE":null,"Email":null,"Website":null,"NAICS_Code":562920,"Infra_Type":"MRF","Feedstock":null,"Street":"103 Iron Mountain Rd","City":"Mine Hill","State":"NJ","Zip_Code":"07803"}},{"type":"Feature","id":252,"geometry":{"type":"Point","coordinates":[-8370189.92131271,4857285.31379293]},"properties":{"OBJECTID":252,"Name":"ReCommunity Philadelphia","TELEPHONE":null,"Email":null,"Website":null,"NAICS_Code":562920,"Infra_Type":"MRF","Feedstock":null,"Street":"2904 Ellsworth St","City":"Philadelphia","State":"PA","Zip_Code":"19146"}},{"type":"Feature","id":253,"geometry":{"type":"Point","coordinates":[-9187113.70951482,3170472.14393315]},"properties":{"OBJECTID":253,"Name":"Recommunity Sarasota","TELEPHONE":"(941) 359-0445","Email":null,"Website":"www.republicservices.com","NAICS_Code":562920,"Infra_Type":"MRF","Feedstock":null,"Street":"4700 Middle Ave","City":"Sarasota","State":"FL","Zip_Code":"34234"}},{"type":"Feature","id":254,"geometry":{"type":"Point","coordinates":[-8366146.17687378,4885064.80531378]},"properties":{"OBJECTID":254,"Name":"ReCommunity Upper Dublin","TELEPHONE":null,"Email":null,"Website":null,"NAICS_Code":562920,"Infra_Type":"MRF","Feedstock":null,"Street":"1030 Fitzwatertown Road","City":"Willow Grove","State":"PA","Zip_Code":"19090"}},{"type":"Feature","id":255,"geometry":{"type":"Point","coordinates":[-7910629.92042946,5180951.25708812]},"properties":{"OBJECTID":255,"Name":"Recycle America Alliance","TELEPHONE":"(508) 586-5385","Email":null,"Website":null,"NAICS_Code":562920,"Infra_Type":"MRF","Feedstock":null,"Street":"40 Ledin Dr","City":"Avon","State":"MA","Zip_Code":"02322"}},{"type":"Feature","id":256,"geometry":{"type":"Point","coordinates":[-8555650.95921637,4703905.07062828]},"properties":{"OBJECTID":256,"Name":"Recycle America Co., L.L.C.","TELEPHONE":null,"Email":null,"Website":null,"NAICS_Code":562920,"Infra_Type":"MRF","Feedstock":null,"Street":"1000 Ritchie Rd","City":"Capitol Heights","State":"MD","Zip_Code":"20743"}},{"type":"Feature","id":257,"geometry":{"type":"Point","coordinates":[-10378843.2221194,5621006.07783093]},"properties":{"OBJECTID":257,"Name":"Recycle America Co., L.L.C.","TELEPHONE":null,"Email":null,"Website":null,"NAICS_Code":562920,"Infra_Type":"MRF","Feedstock":null,"Street":"1800 Broadway St Ne","City":"Minneapolis","State":"MN","Zip_Code":"55413"}},{"type":"Feature","id":258,"geometry":{"type":"Point","coordinates":[-10380361.0177842,5564636.08023453]},"properties":{"OBJECTID":258,"Name":"Recycle Minnesota LLC","TELEPHONE":null,"Email":null,"Website":null,"NAICS_Code":562920,"Infra_Type":"MRF","Feedstock":null,"Street":"8984 215th St W","City":"Lakeville","State":"MN","Zip_Code":"55044"}},{"type":"Feature","id":259,"geometry":{"type":"Point","coordinates":[-8899261.35950319,4924557.06505765]},"properties":{"OBJECTID":259,"Name":"Recycle Source, LLC","TELEPHONE":null,"Email":null,"Website":null,"NAICS_Code":562920,"Infra_Type":"MRF","Feedstock":null,"Street":"50 Vespucius St ","City":"Pittsburgh","State":"PA","Zip_Code":"15207"}},{"type":"Feature","id":260,"geometry":{"type":"Point","coordinates":[-8495619.78794046,4413076.96954016]},"properties":{"OBJECTID":260,"Name":"Recycling and Disposal Solutions of Virginia, Inc.","TELEPHONE":null,"Email":null,"Website":null,"NAICS_Code":562920,"Infra_Type":"MRF","Feedstock":null,"Street":"3325 Frederick Blvd","City":"Portsmouth","State":"VA","Zip_Code":"23704"}},{"type":"Feature","id":261,"geometry":{"type":"Point","coordinates":[-8900788.55117475,4488111.63694331]},"properties":{"OBJECTID":261,"Name":"Recycling and Disposal Solutions of Virginia, Inc.","TELEPHONE":null,"Email":null,"Website":null,"NAICS_Code":562920,"Infra_Type":"MRF","Feedstock":null,"Street":"7704 Enon Dr","City":"Roanoke","State":"VA","Zip_Code":"24019"}},{"type":"Feature","id":262,"geometry":{"type":"Point","coordinates":[-10988250.9785715,5927136.55569912]},"properties":{"OBJECTID":262,"Name":"Recycling Center of North Dakota, LLC","TELEPHONE":null,"Email":null,"Website":null,"NAICS_Code":562920,"Infra_Type":"MRF","Feedstock":null,"Street":"104 1st Ave S Ste 400","City":"Jamestown","State":"ND","Zip_Code":"58401"}},{"type":"Feature","id":263,"geometry":{"type":"Point","coordinates":[-9573692.94454031,5114763.24905767]},"properties":{"OBJECTID":263,"Name":"Recycling Works Inc","TELEPHONE":"(765) 776-2211","Email":null,"Website":"www.ourrecyclingworks.blogspot.com","NAICS_Code":562920,"Infra_Type":"MRF","Feedstock":null,"Street":"707 N Wildwood Ave","City":"Elkhart","State":"IN","Zip_Code":"46514"}},{"type":"Feature","id":264,"geometry":{"type":"Point","coordinates":[-12403841.2763819,4939825.76325752]},"properties":{"OBJECTID":264,"Name":"Recyclyops MRF","TELEPHONE":null,"Email":null,"Website":null,"NAICS_Code":562920,"Infra_Type":"MRF","Feedstock":null,"Street":"665 W 100 S","City":"Heber City","State":"UT","Zip_Code":"84032"}},{"type":"Feature","id":265,"geometry":{"type":"Point","coordinates":[-17599324.7347434,2428425.54824009]},"properties":{"OBJECTID":265,"Name":"Reduce Reuse Recyclers Services Hawaii LLC","TELEPHONE":"(808) 845-9790","Email":null,"Website":"www.rrrhi5.com","NAICS_Code":562920,"Infra_Type":"MRF","Feedstock":null,"Street":"91-165 Kalaeloa Blvd","City":"Kapolei","State":"HI","Zip_Code":"96707"}},{"type":"Feature","id":266,"geometry":{"type":"Point","coordinates":[-8909681.86692405,3912036.99919886]},"properties":{"OBJECTID":266,"Name":"Repower Berkeley","TELEPHONE":null,"Email":null,"Website":null,"NAICS_Code":562920,"Infra_Type":"MRF","Feedstock":null,"Street":"645 Oakley Rd","City":"Moncks Corner","State":"SC","Zip_Code":"29461"}},{"type":"Feature","id":267,"geometry":{"type":"Point","coordinates":[-9609033.54673414,3815877.54679734]},"properties":{"OBJECTID":267,"Name":"Repower South Montgomery","TELEPHONE":"(334) 356-5820","Email":null,"Website":"www.repowersouth.com","NAICS_Code":562920,"Infra_Type":"MRF","Feedstock":null,"Street":"1551 Louisville St","City":"Montgomery","State":"AL","Zip_Code":"36104"}},{"type":"Feature","id":268,"geometry":{"type":"Point","coordinates":[-9588651.24385293,5271783.2608264]},"properties":{"OBJECTID":268,"Name":"Republic Service of Holland","TELEPHONE":null,"Email":null,"Website":null,"NAICS_Code":562920,"Infra_Type":"MRF","Feedstock":null,"Street":"4368 60th St","City":"Holland","State":"MI","Zip_Code":"49423"}},{"type":"Feature","id":269,"geometry":{"type":"Point","coordinates":[-13720208.0537696,5557557.95450649]},"properties":{"OBJECTID":269,"Name":"Republic Services","TELEPHONE":null,"Email":null,"Website":null,"NAICS_Code":562920,"Infra_Type":"MRF","Feedstock":null,"Street":"110 NE Walnut Blvd","City":"Corvallis","State":"OR","Zip_Code":"97330"}},{"type":"Feature","id":270,"geometry":{"type":"Point","coordinates":[-13573105.6925682,4502578.0415754]},"properties":{"OBJECTID":270,"Name":"Republic Services","TELEPHONE":null,"Email":null,"Website":null,"NAICS_Code":562920,"Infra_Type":"MRF","Feedstock":null,"Street":"1601 Dixon Landing Rd","City":"Milpitas","State":"CA","Zip_Code":"95035"}},{"type":"Feature","id":271,"geometry":{"type":"Point","coordinates":[-13617820.1784687,6037006.80003571]},"properties":{"OBJECTID":271,"Name":"Republic Services","TELEPHONE":null,"Email":null,"Website":null,"NAICS_Code":562920,"Infra_Type":"MRF","Feedstock":null,"Street":"2733 3rd Ave. S.","City":"Seattle","State":"WA","Zip_Code":"98134"}},{"type":"Feature","id":272,"geometry":{"type":"Point","coordinates":[-10847265.175184,3222163.29631985]},"properties":{"OBJECTID":272,"Name":"Republic Services","TELEPHONE":null,"Email":null,"Website":null,"NAICS_Code":562920,"Infra_Type":"MRF","Feedstock":null,"Street":"4414 Agnes St","City":"Corpus Christi","State":"TX","Zip_Code":"78405"}},{"type":"Feature","id":273,"geometry":{"type":"Point","coordinates":[-8612967.89752362,4700585.44129783]},"properties":{"OBJECTID":273,"Name":"Republic Services","TELEPHONE":null,"Email":null,"Website":null,"NAICS_Code":562920,"Infra_Type":"MRF","Feedstock":null,"Street":"4619 West Ox Rd","City":"Fairfax","State":"VA","Zip_Code":"22030"}},{"type":"Feature","id":274,"geometry":{"type":"Point","coordinates":[-9784662.86565172,5145919.09930722]},"properties":{"OBJECTID":274,"Name":"Republic Services","TELEPHONE":null,"Email":null,"Website":null,"NAICS_Code":562920,"Infra_Type":"MRF","Feedstock":null,"Street":"5050 West Lake St","City":"Melrose Park","State":"IL","Zip_Code":"60160"}},{"type":"Feature","id":275,"geometry":{"type":"Point","coordinates":[-10759195.6572057,3896878.94686476]},"properties":{"OBJECTID":275,"Name":"Republic Services - Plano Recycling Facility","TELEPHONE":null,"Email":null,"Website":null,"NAICS_Code":562920,"Infra_Type":"MRF","Feedstock":null,"Street":"4200 E 14th St","City":"Plano","State":"TX","Zip_Code":"75074"}},{"type":"Feature","id":276,"geometry":{"type":"Point","coordinates":[-10358070.8065248,5586920.59470272]},"properties":{"OBJECTID":276,"Name":"Republic Services (Inver Grove Heights)","TELEPHONE":null,"Email":null,"Website":null,"NAICS_Code":562920,"Infra_Type":"MRF","Feedstock":null,"Street":"2795 117th St E","City":"Inver Grove Heights","State":"MN","Zip_Code":"55077"}},{"type":"Feature","id":277,"geometry":{"type":"Point","coordinates":[-7905519.03392278,5175548.86294669]},"properties":{"OBJECTID":277,"Name":"Republic Services Brockton MRF","TELEPHONE":null,"Email":null,"Website":null,"NAICS_Code":562920,"Infra_Type":"MRF","Feedstock":null,"Street":"190 Mulberry Street","City":"Brockton","State":"MA","Zip_Code":"02302"}},{"type":"Feature","id":278,"geometry":{"type":"Point","coordinates":[-10826309.5047998,3866128.85760932]},"properties":{"OBJECTID":278,"Name":"Republic Services Inc.","TELEPHONE":null,"Email":null,"Website":null,"NAICS_Code":562920,"Infra_Type":"MRF","Feedstock":null,"Street":"6200 Elliott Reeder Rd","City":"Fort Worth","State":"TX","Zip_Code":"76117"}},{"type":"Feature","id":279,"geometry":{"type":"Point","coordinates":[-12817783.4746355,4320510.75323853]},"properties":{"OBJECTID":279,"Name":"Republic Services Inc.","TELEPHONE":null,"Email":null,"Website":null,"NAICS_Code":562920,"Infra_Type":"MRF","Feedstock":null,"Street":"770 E. Sahara Ave","City":"Las Vegas","State":"NV","Zip_Code":"89104"}},{"type":"Feature","id":280,"geometry":{"type":"Point","coordinates":[-9473869.97381432,5021419.49975444]},"properties":{"OBJECTID":280,"Name":"Republic Services Materials Recovery Facility and Recycling Collection","TELEPHONE":null,"Email":null,"Website":null,"NAICS_Code":562920,"Infra_Type":"MRF","Feedstock":null,"Street":"2509 E Pontiac St","City":"Fort Wayne","State":"IN","Zip_Code":"46803"}},{"type":"Feature","id":281,"geometry":{"type":"Point","coordinates":[-10150686.9129215,3575490.22977711]},"properties":{"OBJECTID":281,"Name":"Republic Services of Baton Rouge","TELEPHONE":null,"Email":null,"Website":null,"NAICS_Code":562920,"Infra_Type":"MRF","Feedstock":null,"Street":"12451 Leisure Rd","City":"Baton Rouge","State":"LA","Zip_Code":"70807"}},{"type":"Feature","id":282,"geometry":{"type":"Point","coordinates":[-10010409.5516498,4169800.71840136]},"properties":{"OBJECTID":282,"Name":"Republic Services of Memphis","TELEPHONE":null,"Email":null,"Website":null,"NAICS_Code":562920,"Infra_Type":"MRF","Feedstock":null,"Street":"3840 Homewood Rd","City":"Memphis","State":"TN","Zip_Code":"38118"}},{"type":"Feature","id":283,"geometry":{"type":"Point","coordinates":[-9044822.7289397,4262852.40992402]},"properties":{"OBJECTID":283,"Name":"Republic Services of North Carolina LLC","TELEPHONE":null,"Email":null,"Website":null,"NAICS_Code":562920,"Infra_Type":"MRF","Feedstock":null,"Street":"130 Somerset Dr NW","City":"Conover","State":"NC","Zip_Code":"28613"}},{"type":"Feature","id":284,"geometry":{"type":"Point","coordinates":[-10058860.3545134,4688182.30875377]},"properties":{"OBJECTID":284,"Name":"Republic Services Recycling - Northside","TELEPHONE":null,"Email":null,"Website":null,"NAICS_Code":562920,"Infra_Type":"MRF","Feedstock":null,"Street":"6025 Byassee Dr","City":"Hazelwood","State":"MO","Zip_Code":"63042"}},{"type":"Feature","id":285,"geometry":{"type":"Point","coordinates":[-13261315.4990541,4055787.38137768]},"properties":{"OBJECTID":285,"Name":"Republic Services, Inc.","TELEPHONE":"(805) 385-8060","Email":null,"Website":"www.republicservices.com","NAICS_Code":562920,"Infra_Type":"MRF","Feedstock":null,"Street":"111 S Del Norte Blvd","City":"Oxnard","State":"CA","Zip_Code":"93030"}},{"type":"Feature","id":286,"geometry":{"type":"Point","coordinates":[-13121364.0775131,4008709.93041365]},"properties":{"OBJECTID":286,"Name":"Republic Services, Inc.","TELEPHONE":"(714) 470-5635","Email":null,"Website":"www.republicservices.com","NAICS_Code":562920,"Infra_Type":"MRF","Feedstock":null,"Street":"2775 E Gretta Ln","City":"Anaheim","State":"CA","Zip_Code":"92806"}},{"type":"Feature","id":287,"geometry":{"type":"Point","coordinates":[-9585118.89000118,4830375.64601279]},"properties":{"OBJECTID":287,"Name":"Republic Services, Inc.","TELEPHONE":"(317) 356-5491","Email":null,"Website":"www.republicservices.com","NAICS_Code":562920,"Infra_Type":"MRF","Feedstock":null,"Street":"3617 Southeastern Ave","City":"Indianapolis","State":"IN","Zip_Code":"46203"}},{"type":"Feature","id":288,"geometry":{"type":"Point","coordinates":[-9114961.24162309,3250539.00073826]},"properties":{"OBJECTID":288,"Name":"Republic Services, Inc.","TELEPHONE":"(863) 665-1489","Email":null,"Website":"www.republicservices.com","NAICS_Code":562920,"Infra_Type":"MRF","Feedstock":null,"Street":"3820 Maine Ave","City":"Lakeland","State":"FL","Zip_Code":"33801"}},{"type":"Feature","id":289,"geometry":{"type":"Point","coordinates":[-10050964.0231972,4656791.25257784]},"properties":{"OBJECTID":289,"Name":"Republic Services, Inc.","TELEPHONE":null,"Email":null,"Website":null,"NAICS_Code":562920,"Infra_Type":"MRF","Feedstock":null,"Street":"4076 Bayless Ave. (Bella Villa)","City":"Saint Louis","State":"MO","Zip_Code":"63125"}},{"type":"Feature","id":290,"geometry":{"type":"Point","coordinates":[-10206884.9986283,5149348.86799461]},"properties":{"OBJECTID":290,"Name":"Republic Services, Inc.","TELEPHONE":null,"Email":null,"Website":"www.republicservices.com","NAICS_Code":562920,"Infra_Type":"MRF","Feedstock":null,"Street":"5755 Willow Creek Dr SW","City":"Cedar Rapids","State":"IA","Zip_Code":"52404"}},{"type":"Feature","id":291,"geometry":{"type":"Point","coordinates":[-10384884.8638079,5626992.72131976]},"properties":{"OBJECTID":291,"Name":"Republic Services, Inc.","TELEPHONE":null,"Email":null,"Website":null,"NAICS_Code":562920,"Infra_Type":"MRF","Feedstock":null,"Street":"725 44th Ave N","City":"Minneapolis","State":"MN","Zip_Code":"55412"}},{"type":"Feature","id":292,"geometry":{"type":"Point","coordinates":[-13373094.5198418,4093560.60564741]},"properties":{"OBJECTID":292,"Name":"ReSource Center","TELEPHONE":"(805) 963-1852","Email":null,"Website":null,"NAICS_Code":562920,"Infra_Type":"MRF","Feedstock":null,"Street":"14470 Calle Real","City":"Goleta","State":"CA","Zip_Code":"93117"}},{"type":"Feature","id":293,"geometry":{"type":"Point","coordinates":[-9772590.7137903,5117537.29577049]},"properties":{"OBJECTID":293,"Name":"Resource Management Enterprises, Inc.","TELEPHONE":"(708) 425-8565","Email":null,"Website":"www.rmcrecycle.com","NAICS_Code":562920,"Infra_Type":"MRF","Feedstock":null,"Street":"9999 Anderson Ave","City":"Chicago Ridge","State":"IL","Zip_Code":"60415"}},{"type":"Feature","id":294,"geometry":{"type":"Point","coordinates":[-9822632.60490378,5115443.03983048]},"properties":{"OBJECTID":294,"Name":"Resource Management Rockford LLC","TELEPHONE":"(708) 425-8565","Email":null,"Website":null,"NAICS_Code":562920,"Infra_Type":"MRF","Feedstock":null,"Street":"10244 Clow Creek Rd","City":"Plainfield","State":"IL","Zip_Code":"60585"}},{"type":"Feature","id":295,"geometry":{"type":"Point","coordinates":[-7961911.95380783,5131802.94535005]},"properties":{"OBJECTID":295,"Name":"Rhode Island Resource Recovery Corporation","TELEPHONE":null,"Email":null,"Website":null,"NAICS_Code":562920,"Infra_Type":"MRF","Feedstock":null,"Street":"65 Shun Pike","City":"Johnston","State":"RI","Zip_Code":"02919"}},{"type":"Feature","id":296,"geometry":{"type":"Point","coordinates":[-10560416.8916007,3820984.27706926]},"properties":{"OBJECTID":296,"Name":"Rivers Recycling","TELEPHONE":null,"Email":null,"Website":null,"NAICS_Code":562920,"Infra_Type":"MRF","Feedstock":null,"Street":"298 FM 1252 W","City":"Kilgore","State":"TX","Zip_Code":"75662"}},{"type":"Feature","id":297,"geometry":{"type":"Point","coordinates":[-8328252.93669054,4870582.32847827]},"properties":{"OBJECTID":297,"Name":"Robert C.Shinn,Jr.Recycling Center","TELEPHONE":null,"Email":null,"Website":null,"NAICS_Code":562920,"Infra_Type":"MRF","Feedstock":null,"Street":"130 Hancock Lane","City":"Mount Holly","State":"NJ","Zip_Code":"08060"}},{"type":"Feature","id":298,"geometry":{"type":"Point","coordinates":[-8254880.26373036,5034137.79755385]},"properties":{"OBJECTID":298,"Name":"Rockland County Solid Waste Management Authority","TELEPHONE":null,"Email":null,"Website":null,"NAICS_Code":562920,"Infra_Type":"MRF","Feedstock":null,"Street":"420 Torne Valley Rd","City":"Hillburn","State":"NY","Zip_Code":"10931"}},{"type":"Feature","id":299,"geometry":{"type":"Point","coordinates":[-9496521.26419015,4166485.89553112]},"properties":{"OBJECTID":299,"Name":"Rock-Tenn Recycling","TELEPHONE":null,"Email":null,"Website":null,"NAICS_Code":562920,"Infra_Type":"MRF","Feedstock":null,"Street":"2900 Home Dr","City":"Chattanooga","State":"TN","Zip_Code":"37410"}},{"type":"Feature","id":300,"geometry":{"type":"Point","coordinates":[-12463712.3516456,4975537.39257486]},"properties":{"OBJECTID":300,"Name":"Rocky Mountain Recycling, LLC","TELEPHONE":null,"Email":null,"Website":null,"NAICS_Code":562920,"Infra_Type":"MRF","Feedstock":null,"Street":"2950 W 900 S","City":"Salt Lake City","State":"UT","Zip_Code":"84104"}},{"type":"Feature","id":301,"geometry":{"type":"Point","coordinates":[-12458643.7518348,4969044.6265181]},"properties":{"OBJECTID":301,"Name":"Rocky Mountain Recycling, LLC","TELEPHONE":null,"Email":null,"Website":null,"NAICS_Code":562920,"Infra_Type":"MRF","Feedstock":null,"Street":"3110 S 900 W","City":"South Salt Lake","State":"UT","Zip_Code":"84119"}},{"type":"Feature","id":302,"geometry":{"type":"Point","coordinates":[-12641403.193639,4456285.26339604]},"properties":{"OBJECTID":302,"Name":"Rocky Mountain Recycling, LLC","TELEPHONE":null,"Email":null,"Website":null,"NAICS_Code":562920,"Infra_Type":"MRF","Feedstock":null,"Street":"838 N 1080 E","City":"St George","State":"UT","Zip_Code":"84770"}},{"type":"Feature","id":303,"geometry":{"type":"Point","coordinates":[-10656181.3752325,4747592.04205132]},"properties":{"OBJECTID":303,"Name":"Rolling Meadows","TELEPHONE":null,"Email":null,"Website":null,"NAICS_Code":562920,"Infra_Type":"MRF","Feedstock":null,"Street":"7351 NW Highway 75","City":"Topeka","State":"KS","Zip_Code":"66618"}},{"type":"Feature","id":304,"geometry":{"type":"Point","coordinates":[-9485606.86002375,4066320.715553]},"properties":{"OBJECTID":304,"Name":"Rome/Floyd Recycling Center","TELEPHONE":"(706) 291-5266","Email":null,"Website":"www.romefloyd.com","NAICS_Code":562920,"Infra_Type":"MRF","Feedstock":null,"Street":"412 Lavender Dr NW","City":"Rome","State":"GA","Zip_Code":"30165"}},{"type":"Feature","id":305,"geometry":{"type":"Point","coordinates":[-17567332.9645381,2426265.13462999]},"properties":{"OBJECTID":305,"Name":"RRR Recycling","TELEPHONE":"(808) 682-5600","Email":null,"Website":"www.rrrhi5.com","NAICS_Code":562920,"Infra_Type":"MRF","Feedstock":null,"Street":"3109 Waialae Ave","City":"Honolulu","State":"HI","Zip_Code":"96816"}},{"type":"Feature","id":306,"geometry":{"type":"Point","coordinates":[-9763420.87365487,5131841.02956634]},"properties":{"OBJECTID":306,"Name":"RSI (Waste Management of Illinois, Inc.)","TELEPHONE":null,"Email":null,"Website":null,"NAICS_Code":562920,"Infra_Type":"MRF","Feedstock":null,"Street":"3301 W 48th Place","City":"Chicago","State":"IL","Zip_Code":"60632"}},{"type":"Feature","id":307,"geometry":{"type":"Point","coordinates":[-9369063.67647106,4832827.67673177]},"properties":{"OBJECTID":307,"Name":"Rumpke Waste & Recycling","TELEPHONE":null,"Email":null,"Website":null,"NAICS_Code":562920,"Infra_Type":"MRF","Feedstock":null,"Street":"1932 E Monument Ave","City":"Dayton","State":"OH","Zip_Code":"45402"}},{"type":"Feature","id":308,"geometry":{"type":"Point","coordinates":[-9238758.09098375,4864347.98445077]},"properties":{"OBJECTID":308,"Name":"Rumpke Waste, Inc.","TELEPHONE":null,"Email":null,"Website":null,"NAICS_Code":562920,"Infra_Type":"MRF","Feedstock":null,"Street":"1191 Fields Ave","City":"Columbus","State":"OH","Zip_Code":"43201"}},{"type":"Feature","id":309,"geometry":{"type":"Point","coordinates":[-9405813.68901216,4747807.16650114]},"properties":{"OBJECTID":309,"Name":"Rumpke Waste, Inc.","TELEPHONE":null,"Email":null,"Website":null,"NAICS_Code":562920,"Infra_Type":"MRF","Feedstock":null,"Street":"5535 Vine St","City":"Cincinnati","State":"OH","Zip_Code":"45217"}},{"type":"Feature","id":310,"geometry":{"type":"Point","coordinates":[-12344390.2128849,3784432.07833031]},"properties":{"OBJECTID":310,"Name":"Saguaro Environmental Ser","TELEPHONE":"(520) 745-8820","Email":null,"Website":null,"NAICS_Code":562920,"Infra_Type":"MRF","Feedstock":null,"Street":"5055 S Swan Rd","City":"Tucson","State":"AZ","Zip_Code":"85706"}},{"type":"Feature","id":311,"geometry":{"type":"Point","coordinates":[-12444152.3126364,3962463.233901]},"properties":{"OBJECTID":311,"Name":"Salt River Landfill and MRF","TELEPHONE":"(480) 941-3427","Email":null,"Website":"www.saltriverlandfill.com","NAICS_Code":562920,"Infra_Type":"MRF","Feedstock":null,"Street":"13602 E Beeline Hwy","City":"Scottsdale","State":"AZ","Zip_Code":"85256"}},{"type":"Feature","id":312,"geometry":{"type":"Point","coordinates":[-13030521.1419872,3860365.26387564]},"properties":{"OBJECTID":312,"Name":"San Diego Recyling Inc","TELEPHONE":"(619) 287-7555","Email":null,"Website":"www.dumpsterrentalsandiegoca.net","NAICS_Code":562920,"Infra_Type":"MRF","Feedstock":null,"Street":"6670 Federal Blvd","City":"Lemon Grove","State":"CA","Zip_Code":"91945"}},{"type":"Feature","id":313,"geometry":{"type":"Point","coordinates":[-13430877.0130231,4196424.53966769]},"properties":{"OBJECTID":313,"Name":"San Luis Garbage Co.","TELEPHONE":null,"Email":null,"Website":null,"NAICS_Code":562920,"Infra_Type":"MRF","Feedstock":null,"Street":"4388 Old Santa Fe Rd","City":"San Luis Obispo","State":"CA","Zip_Code":"93401"}},{"type":"Feature","id":314,"geometry":{"type":"Point","coordinates":[-13618447.2382894,6033074.76739514]},"properties":{"OBJECTID":314,"Name":"Seadrunar Recycling LLC","TELEPHONE":null,"Email":null,"Website":null,"NAICS_Code":562920,"Infra_Type":"MRF","Feedstock":null,"Street":"28 S Brandon St","City":"Seattle","State":"WA","Zip_Code":"98134"}},{"type":"Feature","id":315,"geometry":{"type":"Point","coordinates":[-8247539.05696375,4967017.1199851]},"properties":{"OBJECTID":315,"Name":"Sims Group USA Holdings Corp","TELEPHONE":null,"Email":null,"Website":null,"NAICS_Code":562920,"Infra_Type":"MRF","Feedstock":null,"Street":"1 Linden Ave","City":"Jersey City","State":"NJ","Zip_Code":"07305"}},{"type":"Feature","id":316,"geometry":{"type":"Point","coordinates":[-8238540.02260337,4962636.24989462]},"properties":{"OBJECTID":316,"Name":"Sims Municipal Recycling","TELEPHONE":null,"Email":null,"Website":null,"NAICS_Code":562920,"Infra_Type":"MRF","Feedstock":null,"Street":"472 2nd Ave.","City":"Brooklyn","State":"NY","Zip_Code":"11232"}},{"type":"Feature","id":317,"geometry":{"type":"Point","coordinates":[-9260359.30528936,5242117.91201394]},"properties":{"OBJECTID":317,"Name":"Socrra Recycling Center","TELEPHONE":null,"Email":null,"Website":null,"NAICS_Code":562920,"Infra_Type":"MRF","Feedstock":null,"Street":"995 Coolidge Hwy","City":"Troy","State":"MI","Zip_Code":"48084"}},{"type":"Feature","id":318,"geometry":{"type":"Point","coordinates":[-9658763.41017865,4223430.15728184]},"properties":{"OBJECTID":318,"Name":"Solid Waste & Recycling Hub","TELEPHONE":null,"Email":null,"Website":null,"NAICS_Code":562920,"Infra_Type":"MRF","Feedstock":null,"Street":"611 Hawkins Dr","City":"Lewisburg","State":"TN","Zip_Code":"37091"}},{"type":"Feature","id":319,"geometry":{"type":"Point","coordinates":[-13732670.6111122,4779630.64955424]},"properties":{"OBJECTID":319,"Name":"Solid Wastes of Willits, Inc.","TELEPHONE":"(707) 459-0272","Email":null,"Website":"www.swowservices.com","NAICS_Code":562920,"Infra_Type":"MRF","Feedstock":null,"Street":"350 Franklin Ave","City":"Willits","State":"CA","Zip_Code":"95490"}},{"type":"Feature","id":320,"geometry":{"type":"Point","coordinates":[-9018022.69102235,4023985.92347873]},"properties":{"OBJECTID":320,"Name":"Sonoco Recycling","TELEPHONE":null,"Email":null,"Website":null,"NAICS_Code":562920,"Infra_Type":"MRF","Feedstock":null,"Street":"1132 Idlewilde Blvd","City":"Columbia","State":"SC","Zip_Code":"29201"}},{"type":"Feature","id":321,"geometry":{"type":"Point","coordinates":[-8678511.36167319,4066666.48725789]},"properties":{"OBJECTID":321,"Name":"Sonoco Recycling - New Hanover","TELEPHONE":null,"Email":null,"Website":null,"NAICS_Code":562920,"Infra_Type":"MRF","Feedstock":null,"Street":"3002 US-421","City":"Wilmington","State":"NC","Zip_Code":"28401"}},{"type":"Feature","id":322,"geometry":{"type":"Point","coordinates":[-8743967.89176601,4269323.74212802]},"properties":{"OBJECTID":322,"Name":"Sonoco Recycling - Raleigh","TELEPHONE":null,"Email":null,"Website":null,"NAICS_Code":562920,"Infra_Type":"MRF","Feedstock":null,"Street":"111 S Rogers Lane","City":"Raleigh","State":"NC","Zip_Code":"27610"}},{"type":"Feature","id":323,"geometry":{"type":"Point","coordinates":[-13610250.0720751,4509730.77333009]},"properties":{"OBJECTID":323,"Name":"South Bayside Waste Management Authority","TELEPHONE":"(650) 802-3500","Email":null,"Website":"www.rethinkwaste.org","NAICS_Code":562920,"Infra_Type":"MRF","Feedstock":null,"Street":"610 Elm St Ste 202","City":"San Carlos","State":"CA","Zip_Code":"94070"}},{"type":"Feature","id":324,"geometry":{"type":"Point","coordinates":[-12817800.8390532,4330903.95060834]},"properties":{"OBJECTID":324,"Name":"Southern Nevada Recycling Center","TELEPHONE":null,"Email":null,"Website":null,"NAICS_Code":562920,"Infra_Type":"MRF","Feedstock":null,"Street":"360 W Cheyenne Ave","City":"North Las Vegas","State":"NV","Zip_Code":"89030"}},{"type":"Feature","id":325,"geometry":{"type":"Point","coordinates":[-8478781.45332449,5173534.88387942]},"properties":{"OBJECTID":325,"Name":"Southern Tier Recyclers, Inc.","TELEPHONE":null,"Email":null,"Website":null,"NAICS_Code":562920,"Infra_Type":"MRF","Feedstock":null,"Street":"5730 Route 434","City":"Apalachin","State":"NY","Zip_Code":"13732"}},{"type":"Feature","id":326,"geometry":{"type":"Point","coordinates":[-13502698.4559571,4571974.84719581]},"properties":{"OBJECTID":326,"Name":"Stockton Recycling, Inc.","TELEPHONE":null,"Email":null,"Website":"www.stocktonrecycles.com","NAICS_Code":562920,"Infra_Type":"MRF","Feedstock":null,"Street":"401 S Lincoln St","City":"Stockton","State":"CA","Zip_Code":"95203"}},{"type":"Feature","id":327,"geometry":{"type":"Point","coordinates":[-9864172.80806978,5257133.70517244]},"properties":{"OBJECTID":327,"Name":"Strategic Materials, Inc.","TELEPHONE":null,"Email":null,"Website":null,"NAICS_Code":562920,"Infra_Type":"MRF","Feedstock":null,"Street":"1849 Hobbs Dr","City":"Delavan","State":"WI","Zip_Code":"53115"}},{"type":"Feature","id":328,"geometry":{"type":"Point","coordinates":[-10174103.225053,5551142.92712813]},"properties":{"OBJECTID":328,"Name":"Strum Recycling Center","TELEPHONE":null,"Email":null,"Website":null,"NAICS_Code":562920,"Infra_Type":"MRF","Feedstock":null,"Street":"320 Birch St","City":"Strum","State":"WI","Zip_Code":"54770"}},{"type":"Feature","id":329,"geometry":{"type":"Point","coordinates":[-10903459.8178655,4583281.97423289]},"properties":{"OBJECTID":329,"Name":"Stutzman MRF","TELEPHONE":null,"Email":null,"Website":null,"NAICS_Code":562920,"Infra_Type":"MRF","Feedstock":null,"Street":"315 W Blanchard Ave","City":"South Hutchinson","State":"KS","Zip_Code":"67505"}},{"type":"Feature","id":330,"geometry":{"type":"Point","coordinates":[-11798718.0229714,4808576.46999807]},"properties":{"OBJECTID":330,"Name":"Summit County Resource Allocation Park (SCRAP)","TELEPHONE":null,"Email":null,"Website":null,"NAICS_Code":562920,"Infra_Type":"MRF","Feedstock":null,"Street":"639 Landfill Rd.","City":"Dillon","State":"CO","Zip_Code":"80435"}},{"type":"Feature","id":331,"geometry":{"type":"Point","coordinates":[-9187088.07810409,3169702.35647814]},"properties":{"OBJECTID":331,"Name":"Sun Coast Sanitation Waste Processing Facility","TELEPHONE":null,"Email":null,"Website":null,"NAICS_Code":562920,"Infra_Type":"MRF","Feedstock":null,"Street":"3971 Carmichael Ave","City":"Sarasota","State":"FL","Zip_Code":"34234"}},{"type":"Feature","id":332,"geometry":{"type":"Point","coordinates":[-13582234.6736037,4497562.41311766]},"properties":{"OBJECTID":332,"Name":"Sunnyvale Recycling Ctr","TELEPHONE":"(408) 730-7262","Email":null,"Website":"www.recycling.insunnyvale.com","NAICS_Code":562920,"Infra_Type":"MRF","Feedstock":null,"Street":"301 Carl Rd","City":"Sunnyvale","State":"CA","Zip_Code":"94089"}},{"type":"Feature","id":333,"geometry":{"type":"Point","coordinates":[-10352201.6893302,5597170.09538149]},"properties":{"OBJECTID":333,"Name":"Tennis Sanitation, LLC","TELEPHONE":null,"Email":null,"Website":null,"NAICS_Code":562920,"Infra_Type":"MRF","Feedstock":null,"Street":"720 4th St","City":"Saint Paul","State":"MN","Zip_Code":"55071"}},{"type":"Feature","id":334,"geometry":{"type":"Point","coordinates":[-10882022.2978718,3516755.18929886]},"properties":{"OBJECTID":334,"Name":"Texas Disposal Systems, Inc.","TELEPHONE":null,"Email":null,"Website":null,"NAICS_Code":562920,"Infra_Type":"MRF","Feedstock":null,"Street":"12200 Carl Rd","City":"Creedmoor","State":"TX","Zip_Code":"78610"}},{"type":"Feature","id":335,"geometry":{"type":"Point","coordinates":[-8489922.01024185,4409873.97219523]},"properties":{"OBJECTID":335,"Name":"TFC Recycling","TELEPHONE":null,"Email":null,"Website":null,"NAICS_Code":562920,"Infra_Type":"MRF","Feedstock":null,"Street":"1958 Diamond Hill Rd","City":"Chesapeake","State":"VA","Zip_Code":"23324"}},{"type":"Feature","id":336,"geometry":{"type":"Point","coordinates":[-9910233.8061232,5267059.39080785]},"properties":{"OBJECTID":336,"Name":"The Peltz Group LLC","TELEPHONE":null,"Email":null,"Website":null,"NAICS_Code":562920,"Infra_Type":"MRF","Feedstock":null,"Street":"340 Black Bridge Rd","City":"Janesville","State":"WI","Zip_Code":"53545"}},{"type":"Feature","id":337,"geometry":{"type":"Point","coordinates":[-8616055.45147655,4489731.6938117]},"properties":{"OBJECTID":337,"Name":"Tidewater Fibre Corp.","TELEPHONE":null,"Email":null,"Website":null,"NAICS_Code":562920,"Infra_Type":"MRF","Feedstock":null,"Street":"12206 Old Stage Rd","City":"Chester","State":"VA","Zip_Code":"23836"}},{"type":"Feature","id":338,"geometry":{"type":"Point","coordinates":[-8518018.14191936,5224756.54710601]},"properties":{"OBJECTID":338,"Name":"Tompkins County Recycling LLC","TELEPHONE":null,"Email":null,"Website":null,"NAICS_Code":562920,"Infra_Type":"MRF","Feedstock":null,"Street":"160 Commercial Ave","City":"Ithaca","State":"NY","Zip_Code":"14850"}},{"type":"Feature","id":339,"geometry":{"type":"Point","coordinates":[-8440210.39763076,4905878.27722477]},"properties":{"OBJECTID":339,"Name":"Totalrecycle, Inc.","TELEPHONE":null,"Email":null,"Website":null,"NAICS_Code":562920,"Infra_Type":"MRF","Feedstock":null,"Street":"1270 Lincoln Rd","City":"Birdsboro","State":"PA","Zip_Code":"19508"}},{"type":"Feature","id":340,"geometry":{"type":"Point","coordinates":[-9853996.42887269,5344590.15278623]},"properties":{"OBJECTID":340,"Name":"Town of Ashippun Recycling Center","TELEPHONE":null,"Email":null,"Website":null,"NAICS_Code":562920,"Infra_Type":"MRF","Feedstock":null,"Street":"W2522 Oak St","City":"Ashippun","State":"WI","Zip_Code":"53003"}},{"type":"Feature","id":341,"geometry":{"type":"Point","coordinates":[-10106169.110782,5906729.19750207]},"properties":{"OBJECTID":341,"Name":"Town of La Pointe","TELEPHONE":null,"Email":null,"Website":null,"NAICS_Code":562920,"Infra_Type":"MRF","Feedstock":null,"Street":"346 Big Bay Rd","City":"La Pointe","State":"WI","Zip_Code":"54850"}},{"type":"Feature","id":342,"geometry":{"type":"Point","coordinates":[-13516156.5328142,4533500.21103171]},"properties":{"OBJECTID":342,"Name":"Tracy Material Recovery and Solid Waste Transfer, Inc.","TELEPHONE":"(209) 832-2355","Email":null,"Website":"www.tracymaterialrecovery.com","NAICS_Code":562920,"Infra_Type":"MRF","Feedstock":null,"Street":"30703 S Macarthur Dr","City":"Tracy","State":"CA","Zip_Code":"95377"}},{"type":"Feature","id":343,"geometry":{"type":"Point","coordinates":[-8906762.96522781,4968870.61647989]},"properties":{"OBJECTID":343,"Name":"Tri County Recycling","TELEPHONE":null,"Email":null,"Website":null,"NAICS_Code":562920,"Infra_Type":"MRF","Feedstock":null,"Street":"120 Hutchman Rd","City":"Mars","State":"PA","Zip_Code":"16046"}},{"type":"Feature","id":344,"geometry":{"type":"Point","coordinates":[-13584771.5301187,4522574.38808675]},"properties":{"OBJECTID":344,"Name":"Tri-City Economic Development Corporation","TELEPHONE":"(510) 429-8030","Email":null,"Website":"www.tri-ced.org","NAICS_Code":562920,"Infra_Type":"MRF","Feedstock":null,"Street":"33377 Western Ave","City":"Union City","State":"CA","Zip_Code":"94587"}},{"type":"Feature","id":345,"geometry":{"type":"Point","coordinates":[-10091642.4996404,5832428.65846859]},"properties":{"OBJECTID":345,"Name":"Tri-M Sanitary-Recycling","TELEPHONE":null,"Email":null,"Website":null,"NAICS_Code":562920,"Infra_Type":"MRF","Feedstock":null,"Street":"415 Olson Rd","City":"Mellen","State":"WI","Zip_Code":"54546"}},{"type":"Feature","id":346,"geometry":{"type":"Point","coordinates":[-10169288.1791408,5523160.37602611]},"properties":{"OBJECTID":346,"Name":"Tri-R Project","TELEPHONE":null,"Email":null,"Website":null,"NAICS_Code":562920,"Infra_Type":"MRF","Feedstock":null,"Street":"W20298 Wisconsin 121","City":"Whitehall","State":"WI","Zip_Code":"54773"}},{"type":"Feature","id":347,"geometry":{"type":"Point","coordinates":[-9748129.92232778,4578250.40233733]},"properties":{"OBJECTID":347,"Name":"Tri-State Resource Recovery","TELEPHONE":null,"Email":null,"Website":null,"NAICS_Code":562920,"Infra_Type":"MRF","Feedstock":null,"Street":"1511 Harriet St","City":"Evansville","State":"IN","Zip_Code":"47710"}},{"type":"Feature","id":348,"geometry":{"type":"Point","coordinates":[-10684097.293926,4324206.21703881]},"properties":{"OBJECTID":348,"Name":"Tulsa Recycle & Transfer Inc","TELEPHONE":null,"Email":null,"Website":null,"NAICS_Code":562920,"Infra_Type":"MRF","Feedstock":null,"Street":"1150 N Peoria Ave","City":"Tulsa","State":"OK","Zip_Code":"74106"}},{"type":"Feature","id":349,"geometry":{"type":"Point","coordinates":[-8215212.57676619,5289232.29868065]},"properties":{"OBJECTID":349,"Name":"Twin Bridges Recycling Center","TELEPHONE":null,"Email":null,"Website":null,"NAICS_Code":562920,"Infra_Type":"MRF","Feedstock":null,"Street":"417 New York 146","City":"Halfmoon","State":"NY","Zip_Code":"12065"}},{"type":"Feature","id":350,"geometry":{"type":"Point","coordinates":[-11915422.8947174,4934725.46398999]},"properties":{"OBJECTID":350,"Name":"Twin Enviro Services","TELEPHONE":null,"Email":null,"Website":null,"NAICS_Code":562920,"Infra_Type":"MRF","Feedstock":null,"Street":"20650 County Rd 205","City":"Steamboat Springs","State":"CO","Zip_Code":"80487"}},{"type":"Feature","id":351,"geometry":{"type":"Point","coordinates":[-8234063.69779372,5157391.65900508]},"properties":{"OBJECTID":351,"Name":"Ulster County Resource Recovery Agency","TELEPHONE":null,"Email":null,"Website":null,"NAICS_Code":562920,"Infra_Type":"MRF","Feedstock":null,"Street":"999 Flatbush Rd","City":"Kingston","State":"NY","Zip_Code":"12401"}},{"type":"Feature","id":352,"geometry":{"type":"Point","coordinates":[-12449506.6437666,3938082.12130158]},"properties":{"OBJECTID":352,"Name":"United Fibers, LLC","TELEPHONE":"(480) 726-0001","Email":null,"Website":"www.unitedfibers.com","NAICS_Code":562920,"Infra_Type":"MRF","Feedstock":null,"Street":"390 E Ray Rd","City":"Chandler","State":"AZ","Zip_Code":"85225"}},{"type":"Feature","id":353,"geometry":{"type":"Point","coordinates":[-13629922.2725205,4646278.61193024]},"properties":{"OBJECTID":353,"Name":"Upper Valley Disposal & Recycling","TELEPHONE":null,"Email":null,"Website":null,"NAICS_Code":562920,"Infra_Type":"MRF","Feedstock":null,"Street":"1285 Whitehall Ln","City":"St Helena","State":"CA","Zip_Code":"94574"}},{"type":"Feature","id":354,"geometry":{"type":"Point","coordinates":[-12860783.1846338,3867139.01073481]},"properties":{"OBJECTID":354,"Name":"Valley Environmental Services","TELEPHONE":"(760) 336-0044","Email":null,"Website":null,"NAICS_Code":562920,"Infra_Type":"MRF","Feedstock":null,"Street":"702 E Heil Ave","City":"El Centro","State":"CA","Zip_Code":"92243"}},{"type":"Feature","id":355,"geometry":{"type":"Point","coordinates":[-13057230.7934929,4104367.8055536]},"properties":{"OBJECTID":355,"Name":"Victor Valley Materials Recovery Facility","TELEPHONE":"(760) 241-1284","Email":null,"Website":"www.urecycle.org","NAICS_Code":562920,"Infra_Type":"MRF","Feedstock":null,"Street":"17000 Abbey Ln","City":"Victorville","State":"CA","Zip_Code":"92394"}},{"type":"Feature","id":356,"geometry":{"type":"Point","coordinates":[-9713480.83637455,4581717.26682581]},"properties":{"OBJECTID":356,"Name":"Warrick County","TELEPHONE":"(812) 897-6155","Email":null,"Website":"www.warrickcounty.gov","NAICS_Code":562920,"Infra_Type":"MRF","Feedstock":null,"Street":"1111 S Pelzer Rd FL 2","City":"Boonville","State":"IN","Zip_Code":"47601"}},{"type":"Feature","id":357,"geometry":{"type":"Point","coordinates":[-12460179.1825073,5028787.79092453]},"properties":{"OBJECTID":357,"Name":"Wasatch Integrated Waste Management District","TELEPHONE":null,"Email":null,"Website":null,"NAICS_Code":562920,"Infra_Type":"MRF","Feedstock":null,"Street":"1997 E 3500 N","City":"Layton","State":"UT","Zip_Code":"84040"}},{"type":"Feature","id":358,"geometry":{"type":"Point","coordinates":[-10080872.6697749,5098313.30771568]},"properties":{"OBJECTID":358,"Name":"Waste Commission of Scott County","TELEPHONE":"(563) 386-9575","Email":null,"Website":"www.wastecom.com","NAICS_Code":562920,"Infra_Type":"MRF","Feedstock":null,"Street":"5640 Carey Ave","City":"Davenport","State":"IA","Zip_Code":"52807"}},{"type":"Feature","id":359,"geometry":{"type":"Point","coordinates":[-9201665.88464667,3221655.7097543]},"properties":{"OBJECTID":359,"Name":"Waste Connections","TELEPHONE":null,"Email":null,"Website":null,"NAICS_Code":562920,"Infra_Type":"MRF","Feedstock":null,"Street":"1190 20th St. N. St.","City":"Saint Petersburg","State":"FL","Zip_Code":"33713"}},{"type":"Feature","id":360,"geometry":{"type":"Point","coordinates":[-13449087.7711235,4678614.78147872]},"properties":{"OBJECTID":360,"Name":"Waste Connections El Dorado MRF","TELEPHONE":null,"Email":null,"Website":null,"NAICS_Code":562920,"Infra_Type":"MRF","Feedstock":null,"Street":"4100 Throwita Way","City":"Placerville","State":"CA","Zip_Code":"95667"}},{"type":"Feature","id":361,"geometry":{"type":"Point","coordinates":[-8934296.39086688,2975708.06893904]},"properties":{"OBJECTID":361,"Name":"Waste Connections of Florida, Inc.","TELEPHONE":"(407) 261-5000","Email":null,"Website":null,"NAICS_Code":562920,"Infra_Type":"MRF","Feedstock":null,"Street":"3840 NW 37th CT","City":"Miami","State":"FL","Zip_Code":"33142"}},{"type":"Feature","id":362,"geometry":{"type":"Point","coordinates":[-10753637.4666584,3917815.5479413]},"properties":{"OBJECTID":362,"Name":"Waste Connections Of Texas - Mckinney","TELEPHONE":null,"Email":null,"Website":null,"NAICS_Code":562920,"Infra_Type":"MRF","Feedstock":null,"Street":"2138 Country Ln","City":"McKinney","State":"TX","Zip_Code":"75069"}},{"type":"Feature","id":363,"geometry":{"type":"Point","coordinates":[-8211944.92866793,5254880.7025919]},"properties":{"OBJECTID":363,"Name":"Waste Connections Us, Inc.","TELEPHONE":null,"Email":null,"Website":null,"NAICS_Code":562920,"Infra_Type":"MRF","Feedstock":null,"Street":"865 S Pearl St","City":"Albany","State":"NY","Zip_Code":"12202"}},{"type":"Feature","id":364,"geometry":{"type":"Point","coordinates":[-8253517.23992262,4971903.18490856]},"properties":{"OBJECTID":364,"Name":"Waste Management","TELEPHONE":null,"Email":null,"Website":null,"NAICS_Code":562920,"Infra_Type":"MRF","Feedstock":null,"Street":"150 St. Charles St.","City":"Newark","State":"NJ","Zip_Code":"07105"}},{"type":"Feature","id":365,"geometry":{"type":"Point","coordinates":[-13128185.1772136,4044241.95600875]},"properties":{"OBJECTID":365,"Name":"Waste Management","TELEPHONE":null,"Email":null,"Website":null,"NAICS_Code":562920,"Infra_Type":"MRF","Feedstock":null,"Street":"1501 W. Gladstone Ave","City":"Azusa","State":"CA","Zip_Code":"91702"}},{"type":"Feature","id":366,"geometry":{"type":"Point","coordinates":[-13119465.5243026,4004900.4850375]},"properties":{"OBJECTID":366,"Name":"Waste Management","TELEPHONE":null,"Email":null,"Website":null,"NAICS_Code":562920,"Infra_Type":"MRF","Feedstock":null,"Street":"2050 N. Glassell St","City":"Orange","State":"CA","Zip_Code":"92865"}},{"type":"Feature","id":367,"geometry":{"type":"Point","coordinates":[-8952324.69661724,2998684.49207546]},"properties":{"OBJECTID":367,"Name":"Waste Management","TELEPHONE":null,"Email":null,"Website":null,"NAICS_Code":562920,"Infra_Type":"MRF","Feedstock":null,"Street":"20701 Pembroke Rd.","City":"Pembroke Pines","State":"FL","Zip_Code":"33029"}},{"type":"Feature","id":368,"geometry":{"type":"Point","coordinates":[-13079992.7431537,6045260.52150834]},"properties":{"OBJECTID":368,"Name":"Waste Management","TELEPHONE":null,"Email":null,"Website":null,"NAICS_Code":562920,"Infra_Type":"MRF","Feedstock":null,"Street":"2902 South Geiger Blvd","City":"Spokane","State":"WA","Zip_Code":"99224"}},{"type":"Feature","id":369,"geometry":{"type":"Point","coordinates":[-11682379.2064074,4834480.80855729]},"properties":{"OBJECTID":369,"Name":"Waste Management","TELEPHONE":null,"Email":null,"Website":null,"NAICS_Code":562920,"Infra_Type":"MRF","Feedstock":null,"Street":"3600 E. 48th Ave","City":"Denver","State":"CO","Zip_Code":"80216"}},{"type":"Feature","id":370,"geometry":{"type":"Point","coordinates":[-8351705.72417278,4869422.36944485]},"properties":{"OBJECTID":370,"Name":"Waste Management","TELEPHONE":null,"Email":null,"Website":null,"NAICS_Code":562920,"Infra_Type":"MRF","Feedstock":null,"Street":"5201 Bleigh Ave","City":"Philadelphia","State":"PA","Zip_Code":"19136"}},{"type":"Feature","id":371,"geometry":{"type":"Point","coordinates":[-13513539.8149069,4654111.6875159]},"properties":{"OBJECTID":371,"Name":"Waste Management","TELEPHONE":null,"Email":null,"Website":null,"NAICS_Code":562920,"Infra_Type":"MRF","Feedstock":null,"Street":"8491 Fruitridge Rd","City":"Sacramento","State":"CA","Zip_Code":"95826"}},{"type":"Feature","id":372,"geometry":{"type":"Point","coordinates":[-9804585.50713984,5343710.47717505]},"properties":{"OBJECTID":372,"Name":"Waste Management - Germantown","TELEPHONE":null,"Email":null,"Website":null,"NAICS_Code":562920,"Infra_Type":"MRF","Feedstock":null,"Street":"W132N10487 Grant Dr","City":"Germantown","State":"WI","Zip_Code":"53022"}},{"type":"Feature","id":373,"geometry":{"type":"Point","coordinates":[-9416912.13651683,3989890.66451057]},"properties":{"OBJECTID":373,"Name":"Waste Management Gateway MRF","TELEPHONE":null,"Email":null,"Website":null,"NAICS_Code":562920,"Infra_Type":"MRF","Feedstock":null,"Street":"1625 Westgate Pkwy SW","City":"Atlanta","State":"GA","Zip_Code":"30336"}},{"type":"Feature","id":374,"geometry":{"type":"Point","coordinates":[-9204933.54894601,3235047.00186144]},"properties":{"OBJECTID":374,"Name":"Waste Management Inc. of Florida","TELEPHONE":"(727) 573-1358","Email":null,"Website":"www.collierrecyclesright.com","NAICS_Code":562920,"Infra_Type":"MRF","Feedstock":null,"Street":"12950 40th St N","City":"Clearwater","State":"FL","Zip_Code":"33762"}},{"type":"Feature","id":375,"geometry":{"type":"Point","coordinates":[-8915040.34334119,3086366.54742195]},"properties":{"OBJECTID":375,"Name":"Waste Management Inc. of Florida","TELEPHONE":"(561) 932-0020","Email":null,"Website":"www.collierrecyclesright.com","NAICS_Code":562920,"Infra_Type":"MRF","Feedstock":null,"Street":"1764 N Congress Ave","City":"West Palm Beach","State":"FL","Zip_Code":"33409"}},{"type":"Feature","id":376,"geometry":{"type":"Point","coordinates":[-12520111.5884091,3985220.08703251]},"properties":{"OBJECTID":376,"Name":"Waste Management Northwest Regional Landfill and MRF","TELEPHONE":null,"Email":null,"Website":null,"NAICS_Code":562920,"Infra_Type":"MRF","Feedstock":null,"Street":"19401 W Deer Valley Rd","City":"Surprise","State":"AZ","Zip_Code":"85387"}},{"type":"Feature","id":377,"geometry":{"type":"Point","coordinates":[-9435877.18775319,5407418.5111157]},"properties":{"OBJECTID":377,"Name":"Waste Management of Central MI Inc","TELEPHONE":null,"Email":null,"Website":null,"NAICS_Code":562920,"Infra_Type":"MRF","Feedstock":null,"Street":"4208 E River Rd","City":"Mount Pleasant","State":"MI","Zip_Code":"48858"}},{"type":"Feature","id":378,"geometry":{"type":"Point","coordinates":[-11685174.0005702,4836184.9215654]},"properties":{"OBJECTID":378,"Name":"Waste Management of Colorado, Inc.","TELEPHONE":"(303) 296-4124","Email":null,"Website":"www.wcdenver.com","NAICS_Code":562920,"Infra_Type":"MRF","Feedstock":null,"Street":"5395 Franklin St","City":"Denver","State":"CO","Zip_Code":"80216"}},{"type":"Feature","id":379,"geometry":{"type":"Point","coordinates":[-8946288.05617967,3172907.79948784]},"properties":{"OBJECTID":379,"Name":"Waste Management of Florida","TELEPHONE":null,"Email":null,"Website":null,"NAICS_Code":562920,"Infra_Type":"MRF","Feedstock":null,"Street":"3890 Selvitz Road","City":"Fort Pierce","State":"FL","Zip_Code":"34981"}},{"type":"Feature","id":380,"geometry":{"type":"Point","coordinates":[-9799311.8554879,5207852.79105999]},"properties":{"OBJECTID":380,"Name":"Waste Management of Illinois, Inc.","TELEPHONE":"(847) 548-1755","Email":null,"Website":"www.villageoflombard.org","NAICS_Code":562920,"Infra_Type":"MRF","Feedstock":null,"Street":"30869 N Rte 83","City":"Grayslake","State":"IL","Zip_Code":"60030"}},{"type":"Feature","id":381,"geometry":{"type":"Point","coordinates":[-9764796.45091319,5135646.19108352]},"properties":{"OBJECTID":381,"Name":"Waste Management of Illinois, Inc.","TELEPHONE":"(773) 247-9850","Email":null,"Website":"www.villageoflombard.org","NAICS_Code":562920,"Infra_Type":"MRF","Feedstock":null,"Street":"3757 W 34th St","City":"Chicago","State":"IL","Zip_Code":"60623"}},{"type":"Feature","id":382,"geometry":{"type":"Point","coordinates":[-9778432.42674269,5128007.22574088]},"properties":{"OBJECTID":382,"Name":"Waste Management of Illinois, Inc.","TELEPHONE":null,"Email":null,"Website":null,"NAICS_Code":562920,"Infra_Type":"MRF","Feedstock":null,"Street":"6120 River Road","City":"Hodgkins","State":"IL","Zip_Code":"60525"}},{"type":"Feature","id":383,"geometry":{"type":"Point","coordinates":[-8525663.58026014,4859539.63239333]},"properties":{"OBJECTID":383,"Name":"Waste Management of New Jersey, Inc.","TELEPHONE":null,"Email":null,"Website":null,"NAICS_Code":562920,"Infra_Type":"MRF","Feedstock":null,"Street":"4455 Mount Pisgah Rd","City":"York","State":"PA","Zip_Code":"17406"}},{"type":"Feature","id":384,"geometry":{"type":"Point","coordinates":[-8115346.54509556,4982928.3339596]},"properties":{"OBJECTID":384,"Name":"Waste Management of New York, L.L.C.","TELEPHONE":null,"Email":null,"Website":null,"NAICS_Code":562920,"Infra_Type":"MRF","Feedstock":null,"Street":"352 Horseblock Rd","City":"Brookhaven","State":"NY","Zip_Code":"11719"}},{"type":"Feature","id":385,"geometry":{"type":"Point","coordinates":[-8482345.34843132,5331521.54645816]},"properties":{"OBJECTID":385,"Name":"Waste Management of New York, L.L.C.","TELEPHONE":null,"Email":null,"Website":null,"NAICS_Code":562920,"Infra_Type":"MRF","Feedstock":null,"Street":"4550 Steelway Blvd S","City":"Liverpool","State":"NY","Zip_Code":"13090"}},{"type":"Feature","id":386,"geometry":{"type":"Point","coordinates":[-10806617.3127411,3861422.03730727]},"properties":{"OBJECTID":386,"Name":"Waste Management of Texas, Inc.","TELEPHONE":null,"Email":null,"Website":null,"NAICS_Code":562920,"Infra_Type":"MRF","Feedstock":null,"Street":"1915 Meridian St","City":"Arlington","State":"TX","Zip_Code":"76011"}},{"type":"Feature","id":387,"geometry":{"type":"Point","coordinates":[-8621333.21740846,4720562.51580705]},"properties":{"OBJECTID":387,"Name":"Waste Management of Virginia, Inc.","TELEPHONE":null,"Email":null,"Website":null,"NAICS_Code":562920,"Infra_Type":"MRF","Feedstock":null,"Street":"1505 Moran Rd","City":"Sterling","State":"VA","Zip_Code":"20166"}},{"type":"Feature","id":388,"geometry":{"type":"Point","coordinates":[-10378843.2221194,5621006.07783093]},"properties":{"OBJECTID":388,"Name":"Waste Management Recycle America - Twin Cities","TELEPHONE":null,"Email":null,"Website":null,"NAICS_Code":562920,"Infra_Type":"MRF","Feedstock":null,"Street":"1800 Broadway St Northeast","City":"Minneapolis","State":"MN","Zip_Code":"55413"}},{"type":"Feature","id":389,"geometry":{"type":"Point","coordinates":[-8545438.37693457,4746821.89161031]},"properties":{"OBJECTID":389,"Name":"Waste Management Recycle America Alliance","TELEPHONE":null,"Email":null,"Website":null,"NAICS_Code":562920,"Infra_Type":"MRF","Feedstock":null,"Street":"7175 Kit Kat Rd","City":"Elkridge","State":"MD","Zip_Code":"21075"}},{"type":"Feature","id":390,"geometry":{"type":"Point","coordinates":[-8997867.71996934,3298595.59951426]},"properties":{"OBJECTID":390,"Name":"Waste Management Single Stream Recyclers","TELEPHONE":null,"Email":null,"Website":null,"NAICS_Code":562920,"Infra_Type":"MRF","Feedstock":null,"Street":"2250 Adamson Road","City":"Cocoa","State":"FL","Zip_Code":"32926"}},{"type":"Feature","id":391,"geometry":{"type":"Point","coordinates":[-9789446.37550122,5308948.52495709]},"properties":{"OBJECTID":391,"Name":"Waste Management, Inc.","TELEPHONE":null,"Email":null,"Website":null,"NAICS_Code":562920,"Infra_Type":"MRF","Feedstock":null,"Street":"2101 W Morgan Ave","City":"Milwaukee","State":"WI","Zip_Code":"53221"}},{"type":"Feature","id":392,"geometry":{"type":"Point","coordinates":[-10551565.7692403,4730358.30512364]},"properties":{"OBJECTID":392,"Name":"Waste Management, Inc.","TELEPHONE":"(913) 441-9660","Email":null,"Website":"www.wm.com","NAICS_Code":562920,"Infra_Type":"MRF","Feedstock":null,"Street":"2404 S 88th St","City":"Kansas City","State":"KS","Zip_Code":"66111"}},{"type":"Feature","id":393,"geometry":{"type":"Point","coordinates":[-9127130.69394,3385604.56961606]},"properties":{"OBJECTID":393,"Name":"Waste Pro USA - Ocala","TELEPHONE":null,"Email":null,"Website":null,"NAICS_Code":562920,"Infra_Type":"MRF","Feedstock":null,"Street":"408 Cypress Rd","City":"Ocala","State":"FL","Zip_Code":"34472"}},{"type":"Feature","id":394,"geometry":{"type":"Point","coordinates":[-9173587.78919668,3166057.53742537]},"properties":{"OBJECTID":394,"Name":"WCA of Florida","TELEPHONE":null,"Email":null,"Website":null,"NAICS_Code":562920,"Infra_Type":"MRF","Feedstock":null,"Street":"8001 Fruitville Road","City":"Sarasota","State":"FL","Zip_Code":"34240"}},{"type":"Feature","id":395,"geometry":{"type":"Point","coordinates":[-9409393.39031113,3976972.91713602]},"properties":{"OBJECTID":395,"Name":"Welcome All Transfer Station LLC","TELEPHONE":"(404) 761-9464","Email":null,"Website":null,"NAICS_Code":562920,"Infra_Type":"MRF","Feedstock":null,"Street":"5225 Welcome All Rd SW","City":"College Park","State":"GA","Zip_Code":"30349"}},{"type":"Feature","id":396,"geometry":{"type":"Point","coordinates":[-13621990.0926859,4574034.790701]},"properties":{"OBJECTID":396,"Name":"West County Resource Recovery, Inc","TELEPHONE":"(510) 231-4200","Email":null,"Website":"www.recyclemore.com","NAICS_Code":562920,"Infra_Type":"MRF","Feedstock":null,"Street":"101 Pittsburg Ave","City":"Richmond","State":"CA","Zip_Code":"94801"}},{"type":"Feature","id":397,"geometry":{"type":"Point","coordinates":[-9862697.03311192,4224708.82475916]},"properties":{"OBJECTID":397,"Name":"West TN Recycling Hub","TELEPHONE":null,"Email":null,"Website":null,"NAICS_Code":562920,"Infra_Type":"MRF","Feedstock":null,"Street":"315 Talley Store Rd","City":"Henderson","State":"TN","Zip_Code":"38340"}},{"type":"Feature","id":398,"geometry":{"type":"Point","coordinates":[-13663153.5878265,5725074.15301513]},"properties":{"OBJECTID":398,"Name":"West Vancouver Materials Recovery Center","TELEPHONE":null,"Email":null,"Website":null,"NAICS_Code":562920,"Infra_Type":"MRF","Feedstock":null,"Street":"6601 NW Old Lower River Rd","City":"Vancouver","State":"WA","Zip_Code":"98660"}},{"type":"Feature","id":399,"geometry":{"type":"Point","coordinates":[-13508023.8737327,4698416.06703152]},"properties":{"OBJECTID":399,"Name":"Western Placer Waste Management Authority","TELEPHONE":null,"Email":null,"Website":null,"NAICS_Code":562920,"Infra_Type":"MRF","Feedstock":null,"Street":"3195 Athens Ave.","City":"Lincoln","State":"CA","Zip_Code":"95648"}},{"type":"Feature","id":400,"geometry":{"type":"Point","coordinates":[-9353075.19060709,5214529.65520509]},"properties":{"OBJECTID":400,"Name":"Western Washtenaw Recycling Authority Inc","TELEPHONE":null,"Email":null,"Website":null,"NAICS_Code":562920,"Infra_Type":"MRF","Feedstock":null,"Street":"8025 Werkner Rd","City":"Chelsea","State":"MI","Zip_Code":"48118"}},{"type":"Feature","id":401,"geometry":{"type":"Point","coordinates":[-9415513.51244943,4016870.62946511]},"properties":{"OBJECTID":401,"Name":"WestRock","TELEPHONE":null,"Email":null,"Website":null,"NAICS_Code":562920,"Infra_Type":"MRF","Feedstock":null,"Street":"1775 County Services Pkwy","City":"Marietta","State":"GA","Zip_Code":"30008"}},{"type":"Feature","id":402,"geometry":{"type":"Point","coordinates":[-9350352.44918117,4023820.52772467]},"properties":{"OBJECTID":402,"Name":"WestRock","TELEPHONE":null,"Email":null,"Website":null,"NAICS_Code":562920,"Infra_Type":"MRF","Feedstock":null,"Street":"384 Maltbie St","City":"Lawrenceville","State":"GA","Zip_Code":"30046"}},{"type":"Feature","id":403,"geometry":{"type":"Point","coordinates":[-13643350.4071872,5696879.14642964]},"properties":{"OBJECTID":403,"Name":"WestRock CP, LLC","TELEPHONE":null,"Email":null,"Website":null,"NAICS_Code":562920,"Infra_Type":"MRF","Feedstock":null,"Street":"6328 SE 100th Ave","City":"Portland","State":"OR","Zip_Code":"97266"}},{"type":"Feature","id":404,"geometry":{"type":"Point","coordinates":[-9541126.20776731,4601085.82846549]},"properties":{"OBJECTID":404,"Name":"WestRock Recycling","TELEPHONE":null,"Email":null,"Website":null,"NAICS_Code":562920,"Infra_Type":"MRF","Feedstock":null,"Street":"2000 Industrial Blvd","City":"Louisville","State":"KY","Zip_Code":"40219"}},{"type":"Feature","id":405,"geometry":{"type":"Point","coordinates":[-9378360.74992171,4004863.63506303]},"properties":{"OBJECTID":405,"Name":"WestRock Recycling","TELEPHONE":"(770) 939-1775","Email":null,"Website":null,"NAICS_Code":562920,"Infra_Type":"MRF","Feedstock":null,"Street":"3434 Montreal Indus Way","City":"Tucker","State":"GA","Zip_Code":"30084"}},{"type":"Feature","id":406,"geometry":{"type":"Point","coordinates":[-9345591.51847237,4296020.91444929]},"properties":{"OBJECTID":406,"Name":"Westrock Rkt, LLC","TELEPHONE":null,"Email":null,"Website":null,"NAICS_Code":562920,"Infra_Type":"MRF","Feedstock":null,"Street":"1323 Proctor St","City":"Knoxville","State":"TN","Zip_Code":"37921"}},{"type":"Feature","id":407,"geometry":{"type":"Point","coordinates":[-10854758.8964739,3580565.19047632]},"properties":{"OBJECTID":407,"Name":"Wilco Recycling","TELEPHONE":null,"Email":null,"Website":null,"NAICS_Code":562920,"Infra_Type":"MRF","Feedstock":null,"Street":"1551 County Rd 394","City":"Hutto","State":"TX","Zip_Code":"78634"}},{"type":"Feature","id":408,"geometry":{"type":"Point","coordinates":[-8041726.9165452,5119281.81165536]},"properties":{"OBJECTID":408,"Name":"Willimantic Waste Paper Co., Inc.","TELEPHONE":"(860) 450-7253","Email":null,"Website":"www.williwaste.com","NAICS_Code":562920,"Infra_Type":"MRF","Feedstock":null,"Street":"1590 West Main St","City":"Willimantic","State":"CT","Zip_Code":"06226"}},{"type":"Feature","id":409,"geometry":{"type":"Point","coordinates":[-7933872.98194912,5247560.73138656]},"properties":{"OBJECTID":409,"Name":"WM Billerica MRF","TELEPHONE":null,"Email":null,"Website":null,"NAICS_Code":562920,"Infra_Type":"MRF","Feedstock":null,"Street":"72 Salem Road","City":"Billerica","State":"MA","Zip_Code":"01862"}},{"type":"Feature","id":410,"geometry":{"type":"Point","coordinates":[-13625882.605432,5985287.31968419]},"properties":{"OBJECTID":410,"Name":"WM JMK Fibers Recycling Center","TELEPHONE":null,"Email":null,"Website":null,"NAICS_Code":562920,"Infra_Type":"MRF","Feedstock":null,"Street":"1440 Port of Tacoma R","City":"Tacoma","State":"WA","Zip_Code":"98421"}},{"type":"Feature","id":411,"geometry":{"type":"Point","coordinates":[-8772465.12189768,4285926.30798323]},"properties":{"OBJECTID":411,"Name":"WM Recycle America - Morrisville","TELEPHONE":null,"Email":null,"Website":null,"NAICS_Code":562920,"Infra_Type":"MRF","Feedstock":null,"Street":"10411 Globe Rd","City":"Morrisville","State":"NC","Zip_Code":"27560"}},{"type":"Feature","id":412,"geometry":{"type":"Point","coordinates":[-8922237.1526831,4306384.83704662]},"properties":{"OBJECTID":412,"Name":"WM Recycle America - Winston-Salem","TELEPHONE":null,"Email":null,"Website":null,"NAICS_Code":562920,"Infra_Type":"MRF","Feedstock":null,"Street":"280 Business Park Drive","City":"Winston Salem","State":"NC","Zip_Code":"27107"}},{"type":"Feature","id":413,"geometry":{"type":"Point","coordinates":[-13597890.9775041,6067974.56816277]},"properties":{"OBJECTID":413,"Name":"WM Recycle America, L.L.C.","TELEPHONE":null,"Email":null,"Website":null,"NAICS_Code":562920,"Infra_Type":"MRF","Feedstock":null,"Street":"14020 Ne 190th St","City":"Woodinville","State":"WA","Zip_Code":"98072"}},{"type":"Feature","id":414,"geometry":{"type":"Point","coordinates":[-9845054.13632143,5500750.27257896]},"properties":{"OBJECTID":414,"Name":"WM Recycle America, L.L.C.","TELEPHONE":null,"Email":null,"Website":null,"NAICS_Code":562920,"Infra_Type":"MRF","Feedstock":null,"Street":"1420 Earl St","City":"Menasha","State":"WI","Zip_Code":"54952"}},{"type":"Feature","id":415,"geometry":{"type":"Point","coordinates":[-10866399.3265503,4228004.23954904]},"properties":{"OBJECTID":415,"Name":"WM Recycle America, L.L.C.","TELEPHONE":null,"Email":null,"Website":null,"NAICS_Code":562920,"Infra_Type":"MRF","Feedstock":null,"Street":"5519 NW 4th St","City":"Oklahoma City","State":"OK","Zip_Code":"73127"}},{"type":"Feature","id":416,"geometry":{"type":"Point","coordinates":[-9172550.48684372,3249515.30060715]},"properties":{"OBJECTID":416,"Name":"WM Recycle America, L.L.C.","TELEPHONE":"(813) 247-7397","Email":null,"Website":null,"NAICS_Code":562920,"Infra_Type":"MRF","Feedstock":null,"Street":"6210 N 53rd St","City":"Tampa","State":"FL","Zip_Code":"33610"}},{"type":"Feature","id":417,"geometry":{"type":"Point","coordinates":[-9653275.1438367,4323151.20718635]},"properties":{"OBJECTID":417,"Name":"WM River Hills Recycling Center","TELEPHONE":null,"Email":null,"Website":null,"NAICS_Code":562920,"Infra_Type":"MRF","Feedstock":null,"Street":"208 River Hills Dr","City":"Nashville","State":"TN","Zip_Code":"37210"}},{"type":"Feature","id":418,"geometry":{"type":"Point","coordinates":[-8082839.0275653,5178203.45062878]},"properties":{"OBJECTID":418,"Name":"WM RRT Springfield MRF","TELEPHONE":null,"Email":null,"Website":null,"NAICS_Code":562920,"Infra_Type":"MRF","Feedstock":null,"Street":"84 Birnie Avenue","City":"Springfield","State":"MA","Zip_Code":"01104"}},{"type":"Feature","id":419,"geometry":{"type":"Point","coordinates":[-12466318.4512255,4952680.55318882]},"properties":{"OBJECTID":419,"Name":"WM Salt Lake Commercial Recycling Center","TELEPHONE":null,"Email":null,"Website":null,"NAICS_Code":562920,"Infra_Type":"MRF","Feedstock":null,"Street":"8652 4000 W","City":"West Jordan","State":"UT","Zip_Code":"84088"}},{"type":"Feature","id":420,"geometry":{"type":"Point","coordinates":[-9038884.72324657,4161183.52581424]},"properties":{"OBJECTID":420,"Name":"York County Solid Waste Collection & Recycling","TELEPHONE":null,"Email":null,"Website":null,"NAICS_Code":562920,"Infra_Type":"MRF","Feedstock":null,"Street":"220 Public Works Rd","City":"York","State":"SC","Zip_Code":"29745"}},{"type":"Feature","id":421,"geometry":{"type":"Point","coordinates":[-7878596.34872424,5132129.57328187]},"properties":{"OBJECTID":421,"Name":"ZWS Waste Solutions, LLCA","TELEPHONE":null,"Email":null,"Website":null,"NAICS_Code":562920,"Infra_Type":"MRF","Feedstock":null,"Street":"50 Cranberry Highway","City":"West Wareham","State":"MA","Zip_Code":"02576"}}]}