{"type":"FeatureCollection","crs":{"type":"name","properties":{"name":"EPSG:3857"}},"features":[{"type":"Feature","id":1,"geometry":{"type":"Point","coordinates":[-8709218.06233198,4965181.57525331]},"properties":{"OBJECTID":1,"Name":"American Eagle Paper Mills","TELEPHONE":"(877) 684-1610","Email":"msheehan@aepaper.com","Website":"http://aepaper.com/","NAICS_Code":562920,"Infra_Type":"Paper Recycling Facility","Feedstock":"Paper","Street":"1600 Pennsylvania Avenue","City":"Tyrone","State":"PA","Zip_Code":"16686"}},{"type":"Feature","id":2,"geometry":{"type":"Point","coordinates":[-8053529.78463741,5368963.48832631]},"properties":{"OBJECTID":2,"Name":"APC Paper Group","TELEPHONE":"(603) 542-6330","Email":null,"Website":"http://www.apcpapergroup.com/","NAICS_Code":562920,"Infra_Type":"Paper Recycling Facility","Feedstock":"Paper","Street":"130 Sullivan Street","City":"Claremont","State":"NH","Zip_Code":"03743"}},{"type":"Feature","id":3,"geometry":{"type":"Point","coordinates":[-9911237.35003275,5236950.49695277]},"properties":{"OBJECTID":3,"Name":"Beloit Box Board Company","TELEPHONE":"(608) 365-6671","Email":"jnichols@beloitboxboard.com","Website":"http://www.beloitboxboard.com/","NAICS_Code":562920,"Infra_Type":"Paper Recycling Facility","Feedstock":"Paper","Street":"801 Second Street P.O. Box 386","City":"Beloit","State":"WI","Zip_Code":"53512"}},{"type":"Feature","id":4,"geometry":{"type":"Point","coordinates":[-9784925.90718802,3697320.05386026]},"properties":{"OBJECTID":4,"Name":"Boise Paper","TELEPHONE":"(251) 246-8320","Email":"jckap@boisepaper.com","Website":"http://bph.boisepaper.com/","NAICS_Code":562920,"Infra_Type":"Paper Recycling Facility","Feedstock":"Paper","Street":"4585 Industrial Road","City":"Jackson","State":"AL","Zip_Code":null}},{"type":"Feature","id":5,"geometry":{"type":"Point","coordinates":[-9768034.73286362,5629778.03510718]},"properties":{"OBJECTID":5,"Name":"BPM Inc.","TELEPHONE":"(715) 582-4551","Email":"bpm@bpmpaper.com","Website":"http://www.bpmpaper.com/","NAICS_Code":562920,"Infra_Type":"Paper Recycling Facility","Feedstock":"Paper","Street":"200 West Front Street","City":"Peshtigo","State":"WI","Zip_Code":"54157"}},{"type":"Feature","id":6,"geometry":{"type":"Point","coordinates":[-8444306.43116022,5087970.01189574]},"properties":{"OBJECTID":6,"Name":"Century Paper","TELEPHONE":"(866) 767-2737","Email":"info@centurypaper.com","Website":"https://www.centurypaper.com/","NAICS_Code":562920,"Infra_Type":"Paper Recycling Facility","Feedstock":"Paper","Street":"P.O. Box 432","City":"Lake Winola","State":"PA","Zip_Code":"18625"}},{"type":"Feature","id":7,"geometry":{"type":"Point","coordinates":[-13071311.7733474,6050069.96385824]},"properties":{"OBJECTID":7,"Name":"Clearwater Paper Corporation","TELEPHONE":"(509) 344-5900","Email":null,"Website":"https://www.clearwaterpaper.com/","NAICS_Code":562920,"Infra_Type":"Paper Recycling Facility","Feedstock":"Paper","Street":"601 West Riverside Suite 1100","City":"Spokane","State":"WA","Zip_Code":"99201"}},{"type":"Feature","id":8,"geometry":{"type":"Point","coordinates":[-8331990.14940004,4871981.17878962]},"properties":{"OBJECTID":8,"Name":"Delta Paper","TELEPHONE":"(856) 532-0333","Email":"info@deltapaper.com","Website":"http://deltapaper.com/","NAICS_Code":562920,"Infra_Type":"Paper Recycling Facility","Feedstock":"Paper","Street":"122 Kissel Road Unit B","City":"Burlington","State":"NJ","Zip_Code":"08016"}},{"type":"Feature","id":9,"geometry":{"type":"Point","coordinates":[-9012987.80766575,4167214.63179776]},"properties":{"OBJECTID":9,"Name":"Domtar Corporation","TELEPHONE":"(803) 802-7500","Email":"communications@domtar.com","Website":"https://www.domtar.com/","NAICS_Code":562920,"Infra_Type":"Paper Recycling Facility","Feedstock":"Paper","Street":"234 Kingsley Park Drive","City":"Fort Mill","State":"SC","Zip_Code":"29715"}},{"type":"Feature","id":10,"geometry":{"type":"Point","coordinates":[-9754191.82094841,5145432.2995517]},"properties":{"OBJECTID":10,"Name":"Donco Recycling Solutions","TELEPHONE":"(312) 337-7822","Email":"info@doncosolutions.com","Website":"http://www.doncosolutions.com/","NAICS_Code":562920,"Infra_Type":"Paper Recycling Facility","Feedstock":"Paper","Street":"737 N. Michigan Ave. Suite 1450","City":"Chicago","State":"IL","Zip_Code":"60611"}},{"type":"Feature","id":11,"geometry":{"type":"Point","coordinates":[-8475170.27960161,4419739.21148467]},"properties":{"OBJECTID":11,"Name":"Eagle Paper International Inc.","TELEPHONE":"(757) 363-8103","Email":null,"Website":"http://www.eaglepaperinternational.com/","NAICS_Code":562920,"Infra_Type":"Paper Recycling Facility","Feedstock":"Paper","Street":"4605 Pembroke Lake Circle Suite 100","City":"Virginia Beach","State":"VA","Zip_Code":"23455"}},{"type":"Feature","id":12,"geometry":{"type":"Point","coordinates":[-8057449.16044554,5251119.76958482]},"properties":{"OBJECTID":12,"Name":"Erving Industries, Inc.","TELEPHONE":"(413) 422-2700","Email":"erving@ervingpapermill.com","Website":"http://www.ervingpaper.com/","NAICS_Code":562920,"Infra_Type":"Paper Recycling Facility","Feedstock":"Paper","Street":"97 East Main Street","City":"Erving","State":"MA","Zip_Code":"01344"}},{"type":"Feature","id":13,"geometry":{"type":"Point","coordinates":[-10005741.5930892,4178534.55167634]},"properties":{"OBJECTID":13,"Name":"Evergreen Packaging LLC","TELEPHONE":"(901) 821-5350","Email":null,"Website":"https://evergreenpackaging.com/","NAICS_Code":562920,"Infra_Type":"Paper Recycling Facility","Feedstock":"Paper","Street":"5350 Poplar Ave. Suite 600","City":"Memphis","State":"TN","Zip_Code":"38119"}},{"type":"Feature","id":14,"geometry":{"type":"Point","coordinates":[-8197498.31165392,5358860.8361874]},"properties":{"OBJECTID":14,"Name":"Finch Paper LLC","TELEPHONE":"(800) 833-9983","Email":"info@finchpaper.com","Website":"http://www.finchpaper.com/","NAICS_Code":562920,"Infra_Type":"Paper Recycling Facility","Feedstock":"Paper","Street":"1 Glen Street","City":"Glens Falls","State":"NY","Zip_Code":"12801"}},{"type":"Feature","id":15,"geometry":{"type":"Point","coordinates":[-13144326.5091421,4023761.76122793]},"properties":{"OBJECTID":15,"Name":"Gabriel Container Co","TELEPHONE":"(562) 699-1051","Email":null,"Website":"https://gabrielcontainer.com/","NAICS_Code":562920,"Infra_Type":"Paper Recycling Facility","Feedstock":"Paper","Street":"8844 S Millergrove Drive","City":"Santa Fe Springs","State":"CA","Zip_Code":"90670"}},{"type":"Feature","id":16,"geometry":{"type":"Point","coordinates":[-9394010.22344203,3996251.31598107]},"properties":{"OBJECTID":16,"Name":"Georgia-Pacific LLC","TELEPHONE":"(404) 652-4000","Email":null,"Website":"https://www.gp.com/","NAICS_Code":562920,"Infra_Type":"Paper Recycling Facility","Feedstock":"Paper","Street":"133 Peachtree St","City":"Atlanta","State":"GA","Zip_Code":"30303"}},{"type":"Feature","id":17,"geometry":{"type":"Point","coordinates":[-8998838.76507888,4184847.65963067]},"properties":{"OBJECTID":17,"Name":"Glatfelter","TELEPHONE":"(717) 850-0170","Email":"info@glatfelter.com","Website":"http://www.glatfelter.com/","NAICS_Code":562920,"Infra_Type":"Paper Recycling Facility","Feedstock":"Paper","Street":"Capital Towers South 4350 Congress Street 4350 Congress Street Suite 600","City":"Charlotte","State":"NC","Zip_Code":"28209"}},{"type":"Feature","id":18,"geometry":{"type":"Point","coordinates":[-7924609.15064771,5534572.51873035]},"properties":{"OBJECTID":18,"Name":"Gorham Paper & Tissue","TELEPHONE":"(603) 342-2000","Email":"sales@gorhampt.com","Website":"http://www.gorhampt.com/","NAICS_Code":562920,"Infra_Type":"Paper Recycling Facility","Feedstock":"Paper","Street":"72 Cascade Flt","City":"Gorham","State":"NH","Zip_Code":"03581"}},{"type":"Feature","id":19,"geometry":{"type":"Point","coordinates":[-9399341.91175627,4016486.47062505]},"properties":{"OBJECTID":19,"Name":"Graphic Packaging International, LLC","TELEPHONE":"(770) 240-7200","Email":null,"Website":"http://www.graphicpkg.com/","NAICS_Code":562920,"Infra_Type":"Paper Recycling Facility","Feedstock":"Paper","Street":"1500 Riveredge Parkway NW","City":"Atlanta","State":"GA","Zip_Code":"30328"}},{"type":"Feature","id":20,"geometry":{"type":"Point","coordinates":[-9795453.01489623,5547161.45246051]},"properties":{"OBJECTID":20,"Name":"Green Bay Packaging, Inc.","TELEPHONE":"(920) 433-5111","Email":null,"Website":"https://gbp.com/","NAICS_Code":562920,"Infra_Type":"Paper Recycling Facility","Feedstock":"Paper","Street":"1700 Webster Court","City":"Green Bay","State":"WI","Zip_Code":"54302"}},{"type":"Feature","id":21,"geometry":{"type":"Point","coordinates":[-13042517.3700084,3873197.77469064]},"properties":{"OBJECTID":21,"Name":"Green Field Paper Company","TELEPHONE":"(858) 565-2585","Email":"info@greenfieldpaper.com","Website":"https://www.greenfieldpaper.com/","NAICS_Code":562920,"Infra_Type":"Paper Recycling Facility","Feedstock":"Paper","Street":"7196 Clairemont Mesa Boulevard","City":"San Diego","State":"CA","Zip_Code":"92111"}},{"type":"Feature","id":22,"geometry":{"type":"Point","coordinates":[-8795823.02557365,5325228.97534252]},"properties":{"OBJECTID":22,"Name":"Greenpac Mill","TELEPHONE":"(716) 524-3100","Email":null,"Website":"http://www.greenpacmill.com/","NAICS_Code":562920,"Infra_Type":"Paper Recycling Facility","Feedstock":"Paper","Street":"4400 Royal Ave.","City":"Niagara Falls","State":"NY","Zip_Code":"14303"}},{"type":"Feature","id":23,"geometry":{"type":"Point","coordinates":[-9245166.64347111,4898563.56330158]},"properties":{"OBJECTID":23,"Name":"Greif Inc.","TELEPHONE":"(740) 549-6000","Email":null,"Website":"https://www.greif.com/","NAICS_Code":562920,"Infra_Type":"Paper Recycling Facility","Feedstock":"Paper","Street":"425 Winter Road City","City":"Delaware","State":"OH","Zip_Code":"43015"}},{"type":"Feature","id":24,"geometry":{"type":"Point","coordinates":[-9788992.85721978,4312168.17727614]},"properties":{"OBJECTID":24,"Name":"Hood Container Corporation","TELEPHONE":"(931) 535-4285","Email":"jimmy.gibson@hoodcontainer.com","Website":"https://www.hoodcontainercorporation.com/","NAICS_Code":562920,"Infra_Type":"Paper Recycling Facility","Feedstock":"Paper","Street":"2877 Scepter Road","City":"Waverly","State":"TN","Zip_Code":"37185"}},{"type":"Feature","id":25,"geometry":{"type":"Point","coordinates":[-13055595.2958147,6055110.34716416]},"properties":{"OBJECTID":25,"Name":"Inland Empire Paper Co.","TELEPHONE":"(509) 924-1911","Email":"iep@iepco.com","Website":"http://iepco.com/","NAICS_Code":562920,"Infra_Type":"Paper Recycling Facility","Feedstock":"Paper","Street":"3320 N. Argonne","City":"Willwood","State":"WA","Zip_Code":"99212"}},{"type":"Feature","id":26,"geometry":{"type":"Point","coordinates":[-10002082.0770515,4177685.60571021]},"properties":{"OBJECTID":26,"Name":"International Paper Company","TELEPHONE":"(901) 415-6326","Email":"julie.alsup@ipaper.com","Website":"https://www.internationalpaper.com/","NAICS_Code":562920,"Infra_Type":"Paper Recycling Facility","Feedstock":"Paper","Street":"6400 Poplar Ave","City":"Memphis","State":"TN","Zip_Code":"38197"}},{"type":"Feature","id":27,"geometry":{"type":"Point","coordinates":[-9263736.39994369,4215257.13513019]},"properties":{"OBJECTID":27,"Name":"Jackson Paper Manufacturing","TELEPHONE":"(828) 586-5534","Email":"jastafford@jacksonpaper.net","Website":"https://www.jacksonpaper.net/","NAICS_Code":562920,"Infra_Type":"Paper Recycling Facility","Feedstock":"Paper","Street":"152 West Main Street","City":"Sylva","State":"NC","Zip_Code":"28779"}},{"type":"Feature","id":28,"geometry":{"type":"Point","coordinates":[-13393554.7024923,6021794.91535917]},"properties":{"OBJECTID":28,"Name":"Keyes Packaging Group","TELEPHONE":"(509) 663-8537","Email":"sales@keyespackaging.com","Website":"http://www.keyespackaging.com/","NAICS_Code":562920,"Infra_Type":"Paper Recycling Facility","Feedstock":"Paper","Street":"3715 State Hwy 97A N","City":"Wenatchee","State":"WA","Zip_Code":"98801"}},{"type":"Feature","id":29,"geometry":{"type":"Point","coordinates":[-9847814.19231818,5494069.56685265]},"properties":{"OBJECTID":29,"Name":"Kimberly-Clark Corporation","TELEPHONE":"(888) 525-8388","Email":null,"Website":"https://www.kimberly-clark.com/en/","NAICS_Code":562920,"Infra_Type":"Paper Recycling Facility","Feedstock":"Paper","Street":"PO Box 2020","City":"Neenah","State":"WI","Zip_Code":"54957"}},{"type":"Feature","id":30,"geometry":{"type":"Point","coordinates":[-10397091.713538,5630203.96646295]},"properties":{"OBJECTID":30,"Name":"Liberty Paper Incorporated","TELEPHONE":"(763) 261-6100","Email":null,"Website":"https://www.libertypaper.com/","NAICS_Code":562920,"Infra_Type":"Paper Recycling Facility","Feedstock":"Paper","Street":"5600 Highway 169 North","City":"New Hope","State":"MN","Zip_Code":"55428"}},{"type":"Feature","id":31,"geometry":{"type":"Point","coordinates":[-8075878.62063422,5294955.46030767]},"properties":{"OBJECTID":31,"Name":"Long Falls Paperboard LLC","TELEPHONE":"(802) 257-0365","Email":null,"Website":"https://www.longfallspaperboard.com/","NAICS_Code":562920,"Infra_Type":"Paper Recycling Facility","Feedstock":"Paper","Street":"161 Wellington Road","City":"Brattleboro","State":"VT","Zip_Code":"05301"}},{"type":"Feature","id":32,"geometry":{"type":"Point","coordinates":[-8252046.50709021,4998036.89037486]},"properties":{"OBJECTID":32,"Name":"Marcal Paper","TELEPHONE":"(201) 796-4000","Email":null,"Website":"https://www.marcalpaper.com/","NAICS_Code":562920,"Infra_Type":"Paper Recycling Facility","Feedstock":"Paper","Street":"1 Market Street","City":"Elmwood Park","State":"NJ","Zip_Code":"07407"}},{"type":"Feature","id":33,"geometry":{"type":"Point","coordinates":[-8661647.01308809,4810721.2158019]},"properties":{"OBJECTID":33,"Name":"Maryland Paper Company","TELEPHONE":"(301) 223-6550","Email":null,"Website":"https://www.marylandpaper.com/","NAICS_Code":562920,"Infra_Type":"Paper Recycling Facility","Feedstock":"Paper","Street":"16144 Elliott Parkway","City":"Williamsport","State":"MD","Zip_Code":"21795"}},{"type":"Feature","id":34,"geometry":{"type":"Point","coordinates":[-8007097.53701334,5313433.94078375]},"properties":{"OBJECTID":34,"Name":"Monadnock Paper Mills, Inc.","TELEPHONE":"(603) 588-3311","Email":"info@mpm.com","Website":"https://mpm.com/","NAICS_Code":562920,"Infra_Type":"Paper Recycling Facility","Feedstock":"Paper","Street":"117 Antrim Road","City":"Bennington","State":"NH","Zip_Code":"03442"}},{"type":"Feature","id":35,"geometry":{"type":"Point","coordinates":[-9379816.69242965,4038569.92599792]},"properties":{"OBJECTID":35,"Name":"Neenah, Inc.","TELEPHONE":"(678) 566-6500","Email":null,"Website":"https://www.neenahpaper.com/","NAICS_Code":562920,"Infra_Type":"Paper Recycling Facility","Feedstock":"Paper","Street":"3460 Preston Ridge Road Suite 600","City":"Alpharetta","State":"GA","Zip_Code":"30005"}},{"type":"Feature","id":36,"geometry":{"type":"Point","coordinates":[-13587225.903317,4564783.43741704]},"properties":{"OBJECTID":36,"Name":"New Leaf Paper LLC","TELEPHONE":"(888) 989-5323","Email":"info@newleafpaper.com","Website":"http://newleafpaper.com/","NAICS_Code":562920,"Infra_Type":"Paper Recycling Facility","Feedstock":"Paper","Street":"800 S Broadway Ste 209","City":"Walnut Creek","State":"CA","Zip_Code":"94596"}},{"type":"Feature","id":37,"geometry":{"type":"Point","coordinates":[-13088280.5976901,4038172.53827839]},"properties":{"OBJECTID":37,"Name":"New-Indy Containerboard, LLC","TELEPHONE":"(909) 296-3400","Email":"info@new-indycb.com","Website":"http://newindycontainerboard.com/","NAICS_Code":562920,"Infra_Type":"Paper Recycling Facility","Feedstock":"Paper","Street":"3500 Porsche Way Suite 150","City":"Ontario","State":"CA","Zip_Code":"91764"}},{"type":"Feature","id":38,"geometry":{"type":"Point","coordinates":[-8354941.18286586,4868101.68373737]},"properties":{"OBJECTID":38,"Name":"Newman & Company, Inc","TELEPHONE":"(215) 333-8700","Email":"sales@newmanpaperboard.com","Website":"https://newmanpaperboard.com/","NAICS_Code":562920,"Infra_Type":"Paper Recycling Facility","Feedstock":"Paper","Street":"6101 Tacony Street","City":"Philadelphia","State":"PA","Zip_Code":"19135"}},{"type":"Feature","id":39,"geometry":{"type":"Point","coordinates":[-8636243.24323736,4952317.28490139]},"properties":{"OBJECTID":39,"Name":"Nittany Paper Mills, Inc.","TELEPHONE":"(888) 288-7907","Email":"info@nittanypaper.com","Website":"http://www.nittanypaper.com/","NAICS_Code":562920,"Infra_Type":"Paper Recycling Facility","Feedstock":"Paper","Street":"6395 SR 103 N. Building 5A","City":"Lewiston","State":"PA","Zip_Code":"17044"}},{"type":"Feature","id":40,"geometry":{"type":"Point","coordinates":[-13689375.9019578,5800213.0719573]},"properties":{"OBJECTID":40,"Name":"North Pacific Paper Company","TELEPHONE":"(800) 426-0866","Email":"norpacmedia@norpacpaper.com","Website":"http://norpacpaper.com/","NAICS_Code":562920,"Infra_Type":"Paper Recycling Facility","Feedstock":"Paper","Street":"3001 Industrial Way","City":"Longview","State":"WA","Zip_Code":"98632"}},{"type":"Feature","id":41,"geometry":{"type":"Point","coordinates":[-8571551.02744357,4838166.39916841]},"properties":{"OBJECTID":41,"Name":"Ox Industries","TELEPHONE":"(800) 414-2476","Email":"info@oxindustries.com","Website":"https://oxindustries.com/","NAICS_Code":562920,"Infra_Type":"Paper Recycling Facility","Feedstock":"Paper","Street":"600 West Elm Avenue","City":"Hanover","State":"PA","Zip_Code":"17331"}},{"type":"Feature","id":42,"geometry":{"type":"Point","coordinates":[-13161146.9941444,4029187.80395641]},"properties":{"OBJECTID":42,"Name":"PABCO Paper","TELEPHONE":"(323) 581-6113","Email":"dave.evans@pabcopaper.com","Website":"http://www.pabcopaper.com/","NAICS_Code":562920,"Infra_Type":"Paper Recycling Facility","Feedstock":"Paper","Street":"4460 Pacific Blvd.","City":"Vernon","State":"CA","Zip_Code":"90058"}},{"type":"Feature","id":43,"geometry":{"type":"Point","coordinates":[-9783768.17359428,5197182.49352826]},"properties":{"OBJECTID":43,"Name":"Packaging Corporation of America","TELEPHONE":"(800) 456-4725","Email":null,"Website":"https://www.packagingcorp.com/","NAICS_Code":562920,"Infra_Type":"Paper Recycling Facility","Feedstock":"Paper","Street":"1 North Field Court","City":"Lake Forest","State":"IL","Zip_Code":"60045"}},{"type":"Feature","id":44,"geometry":{"type":"Point","coordinates":[-8251264.93101108,4995908.58828449]},"properties":{"OBJECTID":44,"Name":"Papertec Inc.","TELEPHONE":"(888) 444-9911","Email":"sales@papertecinc.com","Website":"http://www.papertecinc.com/","NAICS_Code":562920,"Infra_Type":"Paper Recycling Facility","Feedstock":"Paper","Street":"141 Lanza Ave Building 29","City":"Garfield","State":"NJ","Zip_Code":"07026"}},{"type":"Feature","id":45,"geometry":{"type":"Point","coordinates":[-8372946.93239152,4867102.26746187]},"properties":{"OBJECTID":45,"Name":"PaperWorks Industries, Inc.","TELEPHONE":"(215) 984-7000","Email":"news@onepaperworks.com","Website":"http://www.paperworksindustries.com/","NAICS_Code":562920,"Infra_Type":"Paper Recycling Facility","Feedstock":"Paper","Street":"40 Monument Road Suite 200","City":"Bala Cynwyd","State":"PA","Zip_Code":"19004"}},{"type":"Feature","id":46,"geometry":{"type":"Point","coordinates":[-13669718.1028295,6122485.52124644]},"properties":{"OBJECTID":46,"Name":"Port Townsend Paper Corporation","TELEPHONE":"(360) 385-3170","Email":"sales@ptpc.com","Website":"https://www.ptpc.com/","NAICS_Code":562920,"Infra_Type":"Paper Recycling Facility","Feedstock":"Paper","Street":"100 Mill Road","City":"Port Townsend","State":"WA","Zip_Code":"98368"}},{"type":"Feature","id":47,"geometry":{"type":"Point","coordinates":[-10964888.4655337,4109283.91674543]},"properties":{"OBJECTID":47,"Name":"Republic Paperboard Company LLC","TELEPHONE":"(580) 510-2200","Email":null,"Website":"https://www.republicpaperboard.com/","NAICS_Code":562920,"Infra_Type":"Paper Recycling Facility","Feedstock":"Paper","Street":"8801 Southwest Lee Boulevard","City":"Lawton","State":"OK","Zip_Code":"73505"}},{"type":"Feature","id":48,"geometry":{"type":"Point","coordinates":[-12478282.4043832,3956010.08156302]},"properties":{"OBJECTID":48,"Name":"Royal Paper Converting Inc.","TELEPHONE":"(800) 258-9007","Email":"info@royalpaper.us","Website":"http://royalpaper.us/","NAICS_Code":562920,"Infra_Type":"Paper Recycling Facility","Feedstock":"Paper","Street":"711 N 17th Ave","City":"Phoenix","State":"AZ","Zip_Code":"85007"}},{"type":"Feature","id":49,"geometry":{"type":"Point","coordinates":[-8015544.83635751,5246060.07245988]},"properties":{"OBJECTID":49,"Name":"Seaman Paper","TELEPHONE":"(978) 632-1513","Email":null,"Website":"https://www.seamanpaper.com/","NAICS_Code":562920,"Infra_Type":"Paper Recycling Facility","Feedstock":"Paper","Street":"35 Wilkins Road","City":"Gardner","State":"MA","Zip_Code":"01440"}},{"type":"Feature","id":50,"geometry":{"type":"Point","coordinates":[-10735805.4226822,3860891.85554749]},"properties":{"OBJECTID":50,"Name":"Smurfit Kappa Forney Mill","TELEPHONE":"(214) 515-6400","Email":null,"Website":"http://smurfitkappa.com/ie/locations/united-states/smurfit-kappa-forney-mills","NAICS_Code":562920,"Infra_Type":"Paper Recycling Facility","Feedstock":"Paper","Street":"855 East Highway 80","City":"Forney","State":"TX","Zip_Code":"75126"}},{"type":"Feature","id":51,"geometry":{"type":"Point","coordinates":[-9170640.57818112,4127007.30612554]},"properties":{"OBJECTID":51,"Name":"Southeastern Paperboard, Inc.","TELEPHONE":"(864) 277-7353","Email":null,"Website":"http://www.southeasternpaperboard.com/","NAICS_Code":562920,"Infra_Type":"Paper Recycling Facility","Feedstock":"Paper","Street":"100 South Harris Road","City":"Piedmont","State":"SC","Zip_Code":"29673"}},{"type":"Feature","id":52,"geometry":{"type":"Point","coordinates":[-9812064.70987313,5601482.65629371]},"properties":{"OBJECTID":52,"Name":"ST Paper LLC","TELEPHONE":"(920) 846-3411","Email":"info@stpaperllc.com","Website":"https://www.stpaperllc.com/","NAICS_Code":562920,"Infra_Type":"Paper Recycling Facility","Feedstock":"Paper","Street":"106 E. Central Avenue","City":"Oconto Falls","State":"WI","Zip_Code":"54154"}},{"type":"Feature","id":53,"geometry":{"type":"Point","coordinates":[-7606303.74861292,6000595.56308217]},"properties":{"OBJECTID":53,"Name":"Twin Rivers Paper Company","TELEPHONE":"(207) 728-3321","Email":"info@twinriverspaper.com","Website":"https://www.twinriverspaper.com/","NAICS_Code":562920,"Infra_Type":"Paper Recycling Facility","Feedstock":"Paper","Street":"82 Bridge Avenue","City":"Madawaska","State":"ME","Zip_Code":"04756"}},{"type":"Feature","id":54,"geometry":{"type":"Point","coordinates":[-9601987.91940657,5774167.95449707]},"properties":{"OBJECTID":54,"Name":"UP Paper LLC","TELEPHONE":"(906) 286-4265","Email":null,"Website":"https://uppaperllc.com/","NAICS_Code":562920,"Infra_Type":"Paper Recycling Facility","Feedstock":"Paper","Street":"402 West Elk Street","City":"Manistique","State":"MI","Zip_Code":"49854"}},{"type":"Feature","id":55,"geometry":{"type":"Point","coordinates":[-8972475.32618486,4933210.39841685]},"properties":{"OBJECTID":55,"Name":"Valley Converting Co.","TELEPHONE":"(740) 537-2152","Email":"mark@valleyconverting.com","Website":"http://www.valleyconverting.com/","NAICS_Code":562920,"Infra_Type":"Paper Recycling Facility","Feedstock":"Paper","Street":"South 4th Street","City":"Toronto","State":"OH","Zip_Code":"43964"}},{"type":"Feature","id":56,"geometry":{"type":"Point","coordinates":[-10259381.598845,5899047.58134605]},"properties":{"OBJECTID":56,"Name":"Verso Corporation Duluth Mill","TELEPHONE":"(218) 628-5100","Email":null,"Website":"https://www.versoco.com/","NAICS_Code":562920,"Infra_Type":"Paper Recycling Facility","Feedstock":"Paper","Street":"100 North Central Avenue","City":"Duluth","State":"MN","Zip_Code":"55807"}},{"type":"Feature","id":57,"geometry":{"type":"Point","coordinates":[-9390298.9876925,4019959.37865273]},"properties":{"OBJECTID":57,"Name":"WestRock Company","TELEPHONE":"(770) 448-2193","Email":null,"Website":"https://www.westrock.com/","NAICS_Code":562920,"Infra_Type":"Paper Recycling Facility","Feedstock":"Paper","Street":"1000 Abernathy Road NE","City":"Atlanta","State":"GA","Zip_Code":"30328"}}]}