{"type":"FeatureCollection","crs":{"type":"name","properties":{"name":"EPSG:3857"}},"features":[{"type":"Feature","id":1,"geometry":{"type":"Point","coordinates":[-8932403.73465367,2979087.73687676]},"properties":{"OBJECTID":1,"Name":"American Salvage","TELEPHONE":"(305) 691-7001","Email":"trw@americansalvage.com","Website":"http://www.americansalvage.com/","NAICS_Code":562920,"Infra_Type":"Wood Secondary Processors","Feedstock":"Wood","Street":"7001 NW 27th Ave","City":"Miami","State":"FL","Zip_Code":"33147"}},{"type":"Feature","id":2,"geometry":{"type":"Point","coordinates":[-9204124.26071184,4316216.57156835]},"properties":{"OBJECTID":2,"Name":"Appalachian Reclaim Barns","TELEPHONE":"(423) 278-4739","Email":"kingbud032@gmail.com","Website":null,"NAICS_Code":562920,"Infra_Type":"Wood Secondary Processors","Feedstock":"Wood","Street":"6945 Graystone Rd","City":"Alfton","State":"TN","Zip_Code":"37616"}},{"type":"Feature","id":3,"geometry":{"type":"Point","coordinates":[-10010171.3607308,3963647.54512972]},"properties":{"OBJECTID":3,"Name":"Blue Ox Lumber","TELEPHONE":"(601) 259-3224","Email":"thaddeusrayd@gmail.com","Website":null,"NAICS_Code":562920,"Infra_Type":"Wood Secondary Processors","Feedstock":"Wood","Street":"584 County Road 293","City":"Carrollton","State":"MS","Zip_Code":"38917"}},{"type":"Feature","id":4,"geometry":{"type":"Point","coordinates":[-10036124.1268489,3831882.88616977]},"properties":{"OBJECTID":4,"Name":"Delta Deconstruction","TELEPHONE":"(601) 573-9892","Email":"deltadeconstructionllc@gmail.com","Website":null,"NAICS_Code":562920,"Infra_Type":"Wood Secondary Processors","Feedstock":"Wood","Street":"130 Providence Drive","City":"Madison","State":"MS","Zip_Code":"39110"}},{"type":"Feature","id":5,"geometry":{"type":"Point","coordinates":[-9826094.16279949,5162609.97315592]},"properties":{"OBJECTID":5,"Name":"Direct Supply, Inc.","TELEPHONE":"(630) 345-3913","Email":"directsupplyelgin@gmail.com","Website":"http://www.directsupply1.com/","NAICS_Code":562920,"Infra_Type":"Wood Secondary Processors","Feedstock":"Wood","Street":"1168 St. Charles Street","City":"Elgin","State":"IL","Zip_Code":"60120"}},{"type":"Feature","id":6,"geometry":{"type":"Point","coordinates":[-9254029.68112508,4879613.26575675]},"properties":{"OBJECTID":6,"Name":"H and S Forest Products","TELEPHONE":"(800) 297-6283","Email":"jromelfanger@hsforest.com","Website":"http://www.hsforest.com/","NAICS_Code":562920,"Infra_Type":"Wood Secondary Processors","Feedstock":"Wood","Street":"525 Metro Place North Suite 200","City":"Dublin","State":"OH","Zip_Code":"43017"}},{"type":"Feature","id":7,"geometry":{"type":"Point","coordinates":[-9764612.21640095,5163088.34637557]},"properties":{"OBJECTID":7,"Name":"Horigan Urban Forest, Inc.","TELEPHONE":"(847) 568-1340","Email":"bahorigan@sbcglobal.net","Website":"http://horiganufp.com/information.php?info_id","NAICS_Code":562920,"Infra_Type":"Wood Secondary Processors","Feedstock":"Wood","Street":"7255 St. Louis Ave.","City":"Skokie","State":"IL","Zip_Code":"60076"}},{"type":"Feature","id":8,"geometry":{"type":"Point","coordinates":[-8381144.61928597,4920705.14310604]},"properties":{"OBJECTID":8,"Name":"JC Woodworking","TELEPHONE":"(267) 404-2214","Email":"jcwoodworking@oldreclaimedwood.com","Website":null,"NAICS_Code":562920,"Infra_Type":"Wood Secondary Processors","Feedstock":"Wood","Street":"255 RT 313 Corner of N 5th St","City":"Perkasie","State":"PA","Zip_Code":"18944"}},{"type":"Feature","id":9,"geometry":{"type":"Point","coordinates":[-7920092.14712734,5220006.64141752]},"properties":{"OBJECTID":9,"Name":"Longleaf Lumber","TELEPHONE":"(617) 871-6611","Email":"info@longleaflumber.com","Website":"https://www.longleaflumber.com/","NAICS_Code":562920,"Infra_Type":"Wood Secondary Processors","Feedstock":"Wood","Street":"115 Fawcett St","City":"Cambridge","State":"MA","Zip_Code":"02138"}},{"type":"Feature","id":10,"geometry":{"type":"Point","coordinates":[-9711425.99407414,4536925.31223782]},"properties":{"OBJECTID":10,"Name":"Ole Bigwood","TELEPHONE":"(270) 302-5262","Email":"Dknight7797@gmail.com","Website":null,"NAICS_Code":562920,"Infra_Type":"Wood Secondary Processors","Feedstock":"Wood","Street":"5897 Horrell Rd","City":"Owensboro","State":"KY","Zip_Code":"42301"}},{"type":"Feature","id":11,"geometry":{"type":"Point","coordinates":[-9062121.22528978,4980753.96724084]},"properties":{"OBJECTID":11,"Name":"The Stock Pile","TELEPHONE":"(330) 455-4585","Email":"thestockpile@att.net","Website":"http://www.thestockpile.org/","NAICS_Code":562920,"Infra_Type":"Wood Secondary Processors","Feedstock":"Wood","Street":"1387 Clarendon Ave SW","City":"Canton","State":"OH","Zip_Code":"44710"}},{"type":"Feature","id":12,"geometry":{"type":"Point","coordinates":[-9584803.40997621,4938997.56374282]},"properties":{"OBJECTID":12,"Name":"Touby Pike Recycling LLC","TELEPHONE":"(765) 454-7600","Email":"DMARTIN2456@YAHOO.COM","Website":"http://www.recyclingkokomoin.com/","NAICS_Code":562920,"Infra_Type":"Wood Secondary Processors","Feedstock":"Wood","Street":"1488 Touby Pike","City":"Kokomo","State":"IN","Zip_Code":"46901"}},{"type":"Feature","id":13,"geometry":{"type":"Point","coordinates":[-9079478.59830596,5017736.34309425]},"properties":{"OBJECTID":13,"Name":"Tri County Pallet","TELEPHONE":"(330) 848-0313","Email":"info@tricountypallet.net","Website":"http://www.tricountypallet.net/","NAICS_Code":562920,"Infra_Type":"Wood Secondary Processors","Feedstock":"Wood","Street":"900 Flora Ave.","City":"Akron","State":"OH","Zip_Code":"44312"}},{"type":"Feature","id":14,"geometry":{"type":"Point","coordinates":[-9845438.51417564,5505841.87950353]},"properties":{"OBJECTID":14,"Name":"Urban Evolutions","TELEPHONE":"(920) 380-4149","Email":"info@urbanevolutions.com","Website":"http://www.urbanevolutions.com/","NAICS_Code":562920,"Infra_Type":"Wood Secondary Processors","Feedstock":"Wood","Street":"2401 W. College Avenue","City":"Appleton","State":"WI","Zip_Code":"54914"}},{"type":"Feature","id":15,"geometry":{"type":"Point","coordinates":[-10616814.6821069,4255845.80909743]},"properties":{"OBJECTID":15,"Name":"Whittinghill Disposal Service, Inc.","TELEPHONE":"(918) 683-5181","Email":"tfaulk@whittinghilldisposal.com","Website":"http://www.whittinghilldisposal.com/","NAICS_Code":562920,"Infra_Type":"Wood Secondary Processors","Feedstock":"Wood","Street":"6000 S. Cherokee St.","City":"Muskogee","State":"OK","Zip_Code":"74403"}}]}