{"type":"FeatureCollection","crs":{"type":"name","properties":{"name":"EPSG:3857"}},"features":[{"type":"Feature","id":1,"geometry":{"type":"Point","coordinates":[-12967647.5018654,5418521.24098781]},"properties":{"OBJECTID":1,"Name":"3K Ranch","TELEPHONE":"(208) 841-7899","Email":null,"Website":"http://www.3kranch.com/","NAICS_Code":562920,"Infra_Type":"Wood Recycling Facility","Feedstock":"Wood","Street":"PO Box 480","City":"Star","State":"ID","Zip_Code":"83669"}},{"type":"Feature","id":2,"geometry":{"type":"Point","coordinates":[-10869450.6181439,3519909.29966631]},"properties":{"OBJECTID":2,"Name":"A & R Demolition","TELEPHONE":"(512) 243-0512","Email":null,"Website":"https://reusewood.org/arDemolition.com","NAICS_Code":562920,"Infra_Type":"Wood Recycling Facility","Feedstock":"Wood","Street":"13201 FM 812","City":"Del Valle","State":"TX","Zip_Code":"78617"}},{"type":"Feature","id":3,"geometry":{"type":"Point","coordinates":[-9353891.3835533,4153040.69925417]},"properties":{"OBJECTID":3,"Name":"A Step Above Stables","TELEPHONE":"(706) 745-9051","Email":"astepabove19@gmail.com","Website":"http://www.astepabovestables.com/boarding-2/","NAICS_Code":562920,"Infra_Type":"Wood Recycling Facility","Feedstock":"Wood","Street":"696 Mauney Circle","City":"Blairsville","State":"GA","Zip_Code":"30512"}},{"type":"Feature","id":4,"geometry":{"type":"Point","coordinates":[-8516516.12445464,4775685.73132686]},"properties":{"OBJECTID":4,"Name":"A-AAA Tree Service","TELEPHONE":"(410) 321-0921","Email":null,"Website":"http://www.treeworkmd.com/","NAICS_Code":562920,"Infra_Type":"Wood Recycling Facility","Feedstock":"Wood","Street":"4215 R Ridge Road","City":"Perry Hall","State":"MD","Zip_Code":"21236"}},{"type":"Feature","id":5,"geometry":{"type":"Point","coordinates":[-10823329.5990397,3832367.80810882]},"properties":{"OBJECTID":5,"Name":"Advanced Tree Services North Texas Tree","TELEPHONE":"(817) 249-8733","Email":null,"Website":"http://www.northtexastree.com/services/","NAICS_Code":562920,"Infra_Type":"Wood Recycling Facility","Feedstock":"Wood","Street":"6200 Cook Hills Rd","City":"Burleson","State":"TX","Zip_Code":"76028"}},{"type":"Feature","id":6,"geometry":{"type":"Point","coordinates":[-8320299.26700605,5010742.89777839]},"properties":{"OBJECTID":6,"Name":"AG Choice","TELEPHONE":"(973) 786-5176","Email":null,"Website":"http://www.ag-choice.com/","NAICS_Code":562920,"Infra_Type":"Wood Recycling Facility","Feedstock":"Wood","Street":"PO Box 1031","City":"Andover","State":"NJ","Zip_Code":"07821"}},{"type":"Feature","id":7,"geometry":{"type":"Point","coordinates":[-7879997.57868097,5333840.94509553]},"properties":{"OBJECTID":7,"Name":"Aggregate Recycling Corp.","TELEPHONE":"(207) 439-5584","Email":null,"Website":"www.aggregateRecycling.com","NAICS_Code":562920,"Infra_Type":"Wood Recycling Facility","Feedstock":"Wood","Street":"434 Dow Hwy","City":"Eliot","State":"ME","Zip_Code":"03903"}},{"type":"Feature","id":8,"geometry":{"type":"Point","coordinates":[-9618935.19303793,4281119.58297046]},"properties":{"OBJECTID":8,"Name":"AJ's Tree Service","TELEPHONE":"(615) 896-0859","Email":"matt@ajtree.com","Website":"http://ajtree.com/","NAICS_Code":562920,"Infra_Type":"Wood Recycling Facility","Feedstock":"Wood","Street":"1109 W College St","City":"Murfeesboro","State":"TN","Zip_Code":"37129"}},{"type":"Feature","id":9,"geometry":{"type":"Point","coordinates":[-13613555.8563104,5995597.32662626]},"properties":{"OBJECTID":9,"Name":"All Pro Tree Care","TELEPHONE":"(253) 569-7807","Email":null,"Website":"http://www.allprotreecare.com/tree-service-au","NAICS_Code":562920,"Infra_Type":"Wood Recycling Facility","Feedstock":"Wood","Street":"30640 Military Road S","City":"Auburn","State":"WA","Zip_Code":"98001"}},{"type":"Feature","id":10,"geometry":{"type":"Point","coordinates":[-10121529.3310603,4694439.69799032]},"properties":{"OBJECTID":10,"Name":"Allen's Tree Service","TELEPHONE":"(636) 332-5535","Email":null,"Website":"http://www.allenstreeservice.com/","NAICS_Code":562920,"Infra_Type":"Wood Recycling Facility","Feedstock":"Wood","Street":"2755 W Pearce Blvd","City":"Wentzville","State":"MO","Zip_Code":"63385"}},{"type":"Feature","id":11,"geometry":{"type":"Point","coordinates":[-8231473.44172878,4973336.78339216]},"properties":{"OBJECTID":11,"Name":"Allocco Recycling Ltd.","TELEPHONE":"(718) 349-3094","Email":null,"Website":"http://www.alloccorecycling.com/","NAICS_Code":562920,"Infra_Type":"Wood Recycling Facility","Feedstock":"Wood","Street":"540 Kingsland Ave","City":"Brooklyn","State":"NY","Zip_Code":"11222"}},{"type":"Feature","id":12,"geometry":{"type":"Point","coordinates":[-8609217.91157347,5326321.47587283]},"properties":{"OBJECTID":12,"Name":"Alpco Recycling, Inc.","TELEPHONE":"(315) 986-8900","Email":"customerservice@alpcoRecycling.com","Website":"http://www.alpcorecycling.com/","NAICS_Code":562920,"Infra_Type":"Wood Recycling Facility","Feedstock":"Wood","Street":"846 Macedon Center Road","City":"Macedon","State":"NY","Zip_Code":"14502"}},{"type":"Feature","id":13,"geometry":{"type":"Point","coordinates":[-8317096.10567997,4979818.76093054]},"properties":{"OBJECTID":13,"Name":"Alstede Farms","TELEPHONE":"(908) 879-7189","Email":null,"Website":"http://alstedefarms.com/about-alstede-farms-n","NAICS_Code":562920,"Infra_Type":"Wood Recycling Facility","Feedstock":"Wood","Street":"1 Alstede Farms Lane","City":"Chester","State":"NJ","Zip_Code":"07930"}},{"type":"Feature","id":14,"geometry":{"type":"Point","coordinates":[-9824447.66708287,5165384.29116885]},"properties":{"OBJECTID":14,"Name":"American Demolition Corp. IL","TELEPHONE":"(847) 608-0010","Email":null,"Website":"http://www.americandemolitioncorp.com/","NAICS_Code":562920,"Infra_Type":"Wood Recycling Facility","Feedstock":"Wood","Street":"305 Ramona Ave","City":"Elgin","State":"IL","Zip_Code":"60120"}},{"type":"Feature","id":15,"geometry":{"type":"Point","coordinates":[-8306024.87717013,4930968.49999395]},"properties":{"OBJECTID":15,"Name":"American Tree Service","TELEPHONE":"(908) 757-0013","Email":null,"Website":"http://www.americantreeservice.biz/services/b","NAICS_Code":562920,"Infra_Type":"Wood Recycling Facility","Feedstock":"Wood","Street":"644 Millstone River Rd","City":"Belle Mead","State":"NJ","Zip_Code":"08502"}},{"type":"Feature","id":16,"geometry":{"type":"Point","coordinates":[-9233187.66789934,4802548.95980486]},"properties":{"OBJECTID":16,"Name":"American Wood Fibers","TELEPHONE":"(740) 420-3233","Email":null,"Website":"http://www.awf.com/","NAICS_Code":562920,"Infra_Type":"Wood Recycling Facility","Feedstock":"Wood","Street":"2500 Owens Rd","City":"Circleville","State":"OH","Zip_Code":"43113"}},{"type":"Feature","id":17,"geometry":{"type":"Point","coordinates":[-8554992.25901931,4747766.52825483]},"properties":{"OBJECTID":17,"Name":"American Wood Fibers - Corporate Headquarters","TELEPHONE":"(410) 290-8700","Email":null,"Website":"http://www.awf.com/american_wood_fibers_home_","NAICS_Code":562920,"Infra_Type":"Wood Recycling Facility","Feedstock":"Wood","Street":"9841 Broken Land Parkway Suite 302","City":"Columbia","State":"MD","Zip_Code":"21406"}},{"type":"Feature","id":18,"geometry":{"type":"Point","coordinates":[-8987207.20849058,4863053.21306582]},"properties":{"OBJECTID":18,"Name":"Americo Inc.","TELEPHONE":"(304) 232-1333","Email":null,"Website":"http://www.americo.ohgolly.com/","NAICS_Code":562920,"Infra_Type":"Wood Recycling Facility","Feedstock":"Wood","Street":"One River Park 16th Street","City":"McMechan","State":"WV","Zip_Code":"26040"}},{"type":"Feature","id":19,"geometry":{"type":"Point","coordinates":[-9797616.81455433,5186596.10963075]},"properties":{"OBJECTID":19,"Name":"Amp Tree Services LLC","TELEPHONE":"(224) 532-9226","Email":"Sokul1@aol.com","Website":null,"NAICS_Code":562920,"Infra_Type":"Wood Recycling Facility","Feedstock":"Wood","Street":"3241 Rfd","City":"Long Grove","State":"IL","Zip_Code":"60047"}},{"type":"Feature","id":20,"geometry":{"type":"Point","coordinates":[-8751275.85689224,4298060.6135008]},"properties":{"OBJECTID":20,"Name":"Andrew's Tree Pros","TELEPHONE":"(919) 398-3935","Email":null,"Website":"http://treeservicewakeforest.com/raleigh-tree","NAICS_Code":562920,"Infra_Type":"Wood Recycling Facility","Feedstock":"Wood","Street":"2725 Durham Rd.","City":"Wake Forest","State":"NC","Zip_Code":"27587"}},{"type":"Feature","id":21,"geometry":{"type":"Point","coordinates":[-7915760.94256933,5206534.23477687]},"properties":{"OBJECTID":21,"Name":"Arborway Tree Care","TELEPHONE":"(617) 522-6071","Email":"estimates@ArborwayTree.com","Website":"http://www.arborwaytree.com/","NAICS_Code":562920,"Infra_Type":"Wood Recycling Facility","Feedstock":"Wood","Street":"76 Stonley Road","City":"Jamaica Plain","State":"MA","Zip_Code":"02130"}},{"type":"Feature","id":22,"geometry":{"type":"Point","coordinates":[-9193321.59614146,4242704.45664346]},"properties":{"OBJECTID":22,"Name":"Asheville Fungi","TELEPHONE":"(828) 301-0395","Email":"ashevillefungi@gmail.com","Website":"http://www.fungiasheville.com/","NAICS_Code":562920,"Infra_Type":"Wood Recycling Facility","Feedstock":"Wood","Street":"16 Allen Street","City":"Asheville","State":"NC","Zip_Code":"28806"}},{"type":"Feature","id":23,"geometry":{"type":"Point","coordinates":[-8640332.73413536,4692287.16988029]},"properties":{"OBJECTID":23,"Name":"B & W Excavating & Land Clearing Co.","TELEPHONE":"(703) 631-0505","Email":null,"Website":"http://www.bwtree.com/index.html","NAICS_Code":562920,"Infra_Type":"Wood Recycling Facility","Feedstock":"Wood","Street":"14219 Lee Hwy","City":"Gainesville","State":"VA","Zip_Code":"20155"}},{"type":"Feature","id":24,"geometry":{"type":"Point","coordinates":[-9171904.72831637,4234734.5560651]},"properties":{"OBJECTID":24,"Name":"B&B Tree Service","TELEPHONE":"(828) 778-1987","Email":null,"Website":"http://beamstree.com/wood-chipping-service/","NAICS_Code":562920,"Infra_Type":"Wood Recycling Facility","Feedstock":"Wood","Street":"82 Garren Creek Road","City":"Fairview","State":"NC","Zip_Code":"28730"}},{"type":"Feature","id":25,"geometry":{"type":"Point","coordinates":[-10365709.6387357,4378490.37848831]},"properties":{"OBJECTID":25,"Name":"Barker's Tree Service","TELEPHONE":"(417) 334-1799","Email":null,"Website":"http://www.barkerstreeservice.com/services/","NAICS_Code":562920,"Infra_Type":"Wood Recycling Facility","Feedstock":"Wood","Street":"5116 State Highway J","City":"Kirbyville","State":"MO","Zip_Code":"65679"}},{"type":"Feature","id":26,"geometry":{"type":"Point","coordinates":[-8703491.95679469,4163127.85725046]},"properties":{"OBJECTID":26,"Name":"Bear Track Farm","TELEPHONE":"(919) 357-6273","Email":null,"Website":"http://beartrackfarm.net/","NAICS_Code":562920,"Infra_Type":"Wood Recycling Facility","Feedstock":"Wood","Street":"461 Chessnut Road","City":"Turkey","State":"NC","Zip_Code":"28393"}},{"type":"Feature","id":27,"geometry":{"type":"Point","coordinates":[-9282173.69492132,4023695.32652029]},"properties":{"OBJECTID":27,"Name":"Bear's Insured Tree Service","TELEPHONE":"(706) 546-6187","Email":"angel4175@windstream.net","Website":"http://www.bearstreeservice.com/tree-services","NAICS_Code":562920,"Infra_Type":"Wood Recycling Facility","Feedstock":"Wood","Street":"4175 Highway 98 E","City":"Athens","State":"GA","Zip_Code":"30601"}},{"type":"Feature","id":28,"geometry":{"type":"Point","coordinates":[-13603910.6920665,4545193.00656116]},"properties":{"OBJECTID":28,"Name":"Bee Green Recycling & Supply","TELEPHONE":"(510) 636-0852","Email":"josh@beegreen.green","Website":"https://www.beegreen.green/","NAICS_Code":562920,"Infra_Type":"Wood Recycling Facility","Feedstock":"Wood","Street":"725 Independent Road","City":"Oakland","State":"CA","Zip_Code":"94621"}},{"type":"Feature","id":29,"geometry":{"type":"Point","coordinates":[-8542375.19474897,4917621.86379653]},"properties":{"OBJECTID":29,"Name":"Berrell's Tree Service","TELEPHONE":"(717) 540-5210","Email":"joanberrell@verizon.net","Website":"http://berrellstreeservice.com/services.html","NAICS_Code":562920,"Infra_Type":"Wood Recycling Facility","Feedstock":"Wood","Street":"7548 Linglestown Road","City":"Harrisburg","State":"PA","Zip_Code":"17112"}},{"type":"Feature","id":30,"geometry":{"type":"Point","coordinates":[-9383089.37664126,4540984.16810951]},"properties":{"OBJECTID":30,"Name":"Bluegrass Regional Recycling Corporation","TELEPHONE":"(859) 626-9117","Email":"mills@qx.net","Website":"http://thebrc.com/","NAICS_Code":562920,"Infra_Type":"Wood Recycling Facility","Feedstock":"Wood","Street":"540 Recycle Drive","City":"Richmond","State":"KY","Zip_Code":"40475"}},{"type":"Feature","id":31,"geometry":{"type":"Point","coordinates":[-12393373.126448,4059450.42376343]},"properties":{"OBJECTID":31,"Name":"Bob Lee & Son's Tree Service","TELEPHONE":"(877) 474-4220","Email":"jodi@bobleetreeservice.com","Website":"http://bobleetreeservice.com/bob-lee-sons-tre","NAICS_Code":562920,"Infra_Type":"Wood Recycling Facility","Feedstock":"Wood","Street":"213 W. Cedar Lane","City":"Payson","State":"AZ","Zip_Code":"85541"}},{"type":"Feature","id":32,"geometry":{"type":"Point","coordinates":[-13024498.1990054,5846319.81483106]},"properties":{"OBJECTID":32,"Name":"Bob's Tropical Fish & Pet Shop","TELEPHONE":"(208) 743-7477","Email":null,"Website":"https://reusewood.org/bobspet.com","NAICS_Code":562920,"Infra_Type":"Wood Recycling Facility","Feedstock":"Wood","Street":"1035 21st St","City":"Lewiston","State":"ID","Zip_Code":"83501"}},{"type":"Feature","id":33,"geometry":{"type":"Point","coordinates":[-12457717.1301495,3964837.93987189]},"properties":{"OBJECTID":33,"Name":"Branch Management Tree Services","TELEPHONE":"(480) 970-1315","Email":null,"Website":"http://www.aztreedoctor.com/aboutUs","NAICS_Code":562920,"Infra_Type":"Wood Recycling Facility","Feedstock":"Wood","Street":"7950 E. Starlight Way","City":"Scottsdale","State":"AZ","Zip_Code":"85250"}},{"type":"Feature","id":34,"geometry":{"type":"Point","coordinates":[-8380223.54714154,4928909.8619801]},"properties":{"OBJECTID":34,"Name":"Briar Patch Achers","TELEPHONE":"(215) 536-6249","Email":"Briarpny@verizon.net","Website":"http://www.briarpatchachers.com/","NAICS_Code":562920,"Infra_Type":"Wood Recycling Facility","Feedstock":"Wood","Street":"5604 Clymer Road","City":"Quakertown","State":"PA","Zip_Code":"18951"}},{"type":"Feature","id":35,"geometry":{"type":"Point","coordinates":[-7896974.9286498,5159993.1502206]},"properties":{"OBJECTID":35,"Name":"Bridgewater Farm Supply Co. Inc.","TELEPHONE":"(508) 697-0357","Email":null,"Website":"http://www.bridgewaterfarm.com/wholesale-farm","NAICS_Code":562920,"Infra_Type":"Wood Recycling Facility","Feedstock":"Wood","Street":"1000 PLYMOUTH ST (RT 104)","City":"Bridgewater","State":"MA","Zip_Code":"02324"}},{"type":"Feature","id":36,"geometry":{"type":"Point","coordinates":[-8519900.57169422,4880287.62106258]},"properties":{"OBJECTID":36,"Name":"Brubaker Farms","TELEPHONE":"(717) 575-8565","Email":null,"Website":null,"NAICS_Code":562920,"Infra_Type":"Wood Recycling Facility","Feedstock":"Wood","Street":"493 Musser Rd","City":"Mount Joy","State":"PA","Zip_Code":"17552"}},{"type":"Feature","id":37,"geometry":{"type":"Point","coordinates":[-9078410.04746572,4999375.49049017]},"properties":{"OBJECTID":37,"Name":"Brush Bandit Tree Service","TELEPHONE":"(330) 882-4051","Email":null,"Website":"http://www.brushbandittree.com/services.html","NAICS_Code":562920,"Infra_Type":"Wood Recycling Facility","Feedstock":"Wood","Street":"634 W Comet Rd","City":"Clinton","State":"OH","Zip_Code":"44216"}},{"type":"Feature","id":38,"geometry":{"type":"Point","coordinates":[-8630003.44564431,4761129.9412051]},"properties":{"OBJECTID":38,"Name":"Butler Tree Service, LLC","TELEPHONE":"(301) 607-4541","Email":"wbwoodRecycling@aol.com","Website":"http://www.butlertreeservice.com/","NAICS_Code":562920,"Infra_Type":"Wood Recycling Facility","Feedstock":"Wood","Street":"4039 Tuscarora Road","City":"Point of Rocks","State":"MD","Zip_Code":"21777"}},{"type":"Feature","id":39,"geometry":{"type":"Point","coordinates":[-9387407.19796966,4739338.83433544]},"properties":{"OBJECTID":39,"Name":"C&D Recycling, Inc.","TELEPHONE":"(513) 233-3885","Email":"sschweitzer@live.com","Website":"http://www.cdrecyclinginc.com/","NAICS_Code":562920,"Infra_Type":"Wood Recycling Facility","Feedstock":"Wood","Street":"7960 Main Street","City":"Newtown","State":"OH","Zip_Code":"45244"}},{"type":"Feature","id":40,"geometry":{"type":"Point","coordinates":[-9336022.01556535,4806515.70174806]},"properties":{"OBJECTID":40,"Name":"C.R. Muterspaw Lumber Co.","TELEPHONE":"(937) 729-9663","Email":"chad@crlumber.com","Website":"https://reusewood.org/www.crlumber.com","NAICS_Code":562920,"Infra_Type":"Wood Recycling Facility","Feedstock":"Wood","Street":"3039 US Rout 68 S","City":"Xenia","State":"OH","Zip_Code":"45385"}},{"type":"Feature","id":41,"geometry":{"type":"Point","coordinates":[-8901742.05133089,4943440.18799897]},"properties":{"OBJECTID":41,"Name":"Carrozza Brothers","TELEPHONE":"(412) 841-6253","Email":null,"Website":"http://carrozzabrothers.com/pittsburgh-pa-tre","NAICS_Code":562920,"Infra_Type":"Wood Recycling Facility","Feedstock":"Wood","Street":"PO Box 233","City":"Glenshaw","State":"PA","Zip_Code":"15116"}},{"type":"Feature","id":42,"geometry":{"type":"Point","coordinates":[-9835690.80123861,5201203.70017646]},"properties":{"OBJECTID":42,"Name":"Castle Ridge Keep","TELEPHONE":"(815) 405-9424","Email":"crkjune@gmail.com","Website":"https://castleridgekeep.com/services.htm#Boarding","NAICS_Code":562920,"Infra_Type":"Wood Recycling Facility","Feedstock":"Wood","Street":"8109 W. Hillside","City":"Crystal Lake","State":"IL","Zip_Code":"60012"}},{"type":"Feature","id":43,"geometry":{"type":"Point","coordinates":[-8435693.08309145,5296641.65478661]},"properties":{"OBJECTID":43,"Name":"Cazabu Farms","TELEPHONE":"(315) 662-7155","Email":"info@cazabufarms.com","Website":"http://www.cazabufarms.com/?page_id=404#","NAICS_Code":562920,"Infra_Type":"Wood Recycling Facility","Feedstock":"Wood","Street":"3657 Erieville Rd","City":"Erieville","State":"NY","Zip_Code":"13061"}},{"type":"Feature","id":44,"geometry":{"type":"Point","coordinates":[-13331258.5337415,4395354.3211949]},"properties":{"OBJECTID":44,"Name":"Cedar Avenue Recycling and Transfer Station, L.P.","TELEPHONE":"(559) 233-1158","Email":"cagliainfo@cagliarecycling.com","Website":"http://cagliaenvironmental.com/","NAICS_Code":562920,"Infra_Type":"Wood Recycling Facility","Feedstock":"Wood","Street":"3457 S. Cedar Avenue","City":"Fresno","State":"CA","Zip_Code":"93725"}},{"type":"Feature","id":45,"geometry":{"type":"Point","coordinates":[-8008601.57923821,5242575.99016244]},"properties":{"OBJECTID":45,"Name":"Central Mass Tree Inc.","TELEPHONE":"(978) 232-2889","Email":null,"Website":"http://www.centralmasstree.net/","NAICS_Code":562920,"Infra_Type":"Wood Recycling Facility","Feedstock":"Wood","Street":"125 Ellis Rd","City":"Westminster","State":"MA","Zip_Code":"01473"}},{"type":"Feature","id":46,"geometry":{"type":"Point","coordinates":[-16679606.8844467,8678482.06647136]},"properties":{"OBJECTID":46,"Name":"Central Recycling Services","TELEPHONE":"(907) 748-7400","Email":"crs@crs-alaska.com","Website":"http://www.centralrecyclingservices.com/","NAICS_Code":562920,"Infra_Type":"Wood Recycling Facility","Feedstock":"Wood","Street":"2400 Railroad Ave.","City":"Anchorage","State":"AK","Zip_Code":"99501"}},{"type":"Feature","id":47,"geometry":{"type":"Point","coordinates":[-10878627.3289591,3550955.38300027]},"properties":{"OBJECTID":47,"Name":"Certified Arbor Care","TELEPHONE":"(512) 671-8733","Email":null,"Website":"http://www.certifiedarbor.com/tree-service-au","NAICS_Code":562920,"Infra_Type":"Wood Recycling Facility","Feedstock":"Wood","Street":"2100 Polaris Avenue","City":"Austin","State":"TX","Zip_Code":"78757"}},{"type":"Feature","id":48,"geometry":{"type":"Point","coordinates":[-10281564.4604937,4724520.61313927]},"properties":{"OBJECTID":48,"Name":"Cevet Tree Care","TELEPHONE":"(573) 557-3081","Email":null,"Website":"http://www.cevettree.com/services/tree-care/","NAICS_Code":562920,"Infra_Type":"Wood Recycling Facility","Feedstock":"Wood","Street":"5941 N. Creasy Springs","City":"Columbia","State":"MO","Zip_Code":"65202"}},{"type":"Feature","id":49,"geometry":{"type":"Point","coordinates":[-10785690.3820762,3870030.7456643]},"properties":{"OBJECTID":49,"Name":"Chippers Tree Service","TELEPHONE":"(972) 743-9959","Email":null,"Website":"http://www.chipperstreeservice.net/tree-servi","NAICS_Code":562920,"Infra_Type":"Wood Recycling Facility","Feedstock":"Wood","Street":"PO Box 560784","City":"Dallas","State":"TX","Zip_Code":"75356"}},{"type":"Feature","id":50,"geometry":{"type":"Point","coordinates":[-13656744.37286,5705085.82092341]},"properties":{"OBJECTID":50,"Name":"City of Portland, OR","TELEPHONE":"(503) 823-7418","Email":"shawn.wood@portlandoregon.gov","Website":"http://portlandonline.com/bps","NAICS_Code":562920,"Infra_Type":"Wood Recycling Facility","Feedstock":"Wood","Street":"721 NW 9th Ave","City":"Portland","State":"OR","Zip_Code":"97217"}},{"type":"Feature","id":51,"geometry":{"type":"Point","coordinates":[-13155604.3951834,4021947.70499265]},"properties":{"OBJECTID":51,"Name":"Construction & Demolition Recycling, Inc.","TELEPHONE":"(323) 357-6900","Email":"richard@irsdemo.com","Website":"http://www.constructiondemolitionrecycling.co/","NAICS_Code":562920,"Infra_Type":"Wood Recycling Facility","Feedstock":"Wood","Street":"9309 Rayo Ave.","City":"South Gate","State":"CA","Zip_Code":"90280"}},{"type":"Feature","id":52,"geometry":{"type":"Point","coordinates":[-10435405.3261106,4692522.01794524]},"properties":{"OBJECTID":52,"Name":"Country Pets & Ponds","TELEPHONE":"(660) 747-2160","Email":null,"Website":"http://www.countrypetsandponds.com/page8.php","NAICS_Code":562920,"Infra_Type":"Wood Recycling Facility","Feedstock":"Wood","Street":"241 NW 21 Road","City":"Warrensburg","State":"MO","Zip_Code":"64093"}},{"type":"Feature","id":53,"geometry":{"type":"Point","coordinates":[-9772482.72969256,5133762.61730996]},"properties":{"OBJECTID":53,"Name":"Country Tree Services, Inc.","TELEPHONE":"(708) 484-4808","Email":"info@Countytreeservice.net","Website":"http://www.certifiedtreeservices.com/tree-chi","NAICS_Code":562920,"Infra_Type":"Wood Recycling Facility","Feedstock":"Wood","Street":"6600 W 41st St.","City":"Stickney","State":"IL","Zip_Code":"60402"}},{"type":"Feature","id":54,"geometry":{"type":"Point","coordinates":[-7826370.53451815,5404582.20171684]},"properties":{"OBJECTID":54,"Name":"CPRC Group","TELEPHONE":"(207) 883-3325","Email":"jhiltner@cprcgroup.com","Website":"http://www.cprcgroup.com/","NAICS_Code":562920,"Infra_Type":"Wood Recycling Facility","Feedstock":"Wood","Street":"70 Pleasant Hill Road","City":"Scarborough","State":"ME","Zip_Code":"04074"}},{"type":"Feature","id":55,"geometry":{"type":"Point","coordinates":[-8770790.76655295,4257271.87377437]},"properties":{"OBJECTID":55,"Name":"CS Tree Services, Inc.","TELEPHONE":"(919) 355-8299","Email":null,"Website":"http://www.cstreeservices.com/tree_care_servi","NAICS_Code":562920,"Infra_Type":"Wood Recycling Facility","Feedstock":"Wood","Street":"8617 Cavatine Court","City":"Apex","State":"NC","Zip_Code":"27539"}},{"type":"Feature","id":56,"geometry":{"type":"Point","coordinates":[-9935866.30902432,5318494.26022092]},"properties":{"OBJECTID":56,"Name":"Dane County Landfill / Landfill Reduction","TELEPHONE":"(608) 960-4580","Email":"sales@landfillreduction.com","Website":"https://www.countyofdane.com/pwht/recycle/CD_","NAICS_Code":562920,"Infra_Type":"Wood Recycling Facility","Feedstock":"Wood","Street":"7102 US Hwy 12&18","City":"Madison","State":"WI","Zip_Code":"53718"}},{"type":"Feature","id":57,"geometry":{"type":"Point","coordinates":[-9074303.24604872,5070682.03205297]},"properties":{"OBJECTID":57,"Name":"Daniel's Stump-EEZ, LTD","TELEPHONE":"(440) 439-3164","Email":"yoman2354@yahoo.com","Website":"http://www.danielsstumpeez.com/","NAICS_Code":562920,"Infra_Type":"Wood Recycling Facility","Feedstock":"Wood","Street":"904 Archer Rd.","City":"Bedford","State":"OH","Zip_Code":"44146"}},{"type":"Feature","id":58,"geometry":{"type":"Point","coordinates":[-9307169.25932291,3995044.82208385]},"properties":{"OBJECTID":58,"Name":"Darby Farms","TELEPHONE":"(229) 794-3029","Email":null,"Website":"https://www.darbyfarmsga.com/","NAICS_Code":562920,"Infra_Type":"Wood Recycling Facility","Feedstock":"Wood","Street":"2795 Nunnally Shoals Rd","City":"Good Hope","State":"GA","Zip_Code":"30641"}},{"type":"Feature","id":59,"geometry":{"type":"Point","coordinates":[-9883295.49829129,4273304.75982253]},"properties":{"OBJECTID":59,"Name":"Dement Tree Service, LLC","TELEPHONE":"(731) 783-5000","Email":"sam@dementtreeservice.com","Website":"http://www.dementtreeservice.com/chipping.htm","NAICS_Code":562920,"Infra_Type":"Wood Recycling Facility","Feedstock":"Wood","Street":"29R Jackson Hwy.","City":"Medina","State":"TN","Zip_Code":"38355"}},{"type":"Feature","id":60,"geometry":{"type":"Point","coordinates":[-13600932.2395474,6059099.47707269]},"properties":{"OBJECTID":60,"Name":"Denny's Pet World","TELEPHONE":"(425) 821-3800","Email":null,"Website":"http://www.dennyspet.com/","NAICS_Code":562920,"Infra_Type":"Wood Recycling Facility","Feedstock":"Wood","Street":"12534 120th Ave NE","City":"Kirkland","State":"WA","Zip_Code":"98034"}},{"type":"Feature","id":61,"geometry":{"type":"Point","coordinates":[-8474701.68292201,5426649.28528505]},"properties":{"OBJECTID":61,"Name":"Doubledale Farm","TELEPHONE":"(315) 846-5902","Email":null,"Website":"http://www.byrnedairy.com/our-farmers/doubled","NAICS_Code":562920,"Infra_Type":"Wood Recycling Facility","Feedstock":"Wood","Street":"5601 State Route 289","City":"Mannsville","State":"NY","Zip_Code":"13661"}},{"type":"Feature","id":62,"geometry":{"type":"Point","coordinates":[-12519783.9225005,3957068.71126922]},"properties":{"OBJECTID":62,"Name":"Duncan Family Farms","TELEPHONE":"(623) 853-9880","Email":null,"Website":"http://www.duncanfamilyfarms.com/","NAICS_Code":562920,"Infra_Type":"Wood Recycling Facility","Feedstock":"Wood","Street":"18969 W. McDowell Rd.","City":"Buckeye","State":"AZ","Zip_Code":"85396"}},{"type":"Feature","id":63,"geometry":{"type":"Point","coordinates":[-8536698.90563389,4719881.64262229]},"properties":{"OBJECTID":63,"Name":"Earth Wise Compost & Recycling Center","TELEPHONE":"(410) 793-0127","Email":null,"Website":null,"NAICS_Code":562920,"Infra_Type":"Wood Recycling Facility","Feedstock":"Wood","Street":"2209 Cox Road","City":"Gambrills","State":"MD","Zip_Code":"21054"}},{"type":"Feature","id":64,"geometry":{"type":"Point","coordinates":[-9902457.25225465,5209169.48577742]},"properties":{"OBJECTID":64,"Name":"Equustock","TELEPHONE":"(866) 962-4686","Email":"info@equustock.com","Website":"http://www.equustock.com/products/big-heat-fu","NAICS_Code":562920,"Infra_Type":"Wood Recycling Facility","Feedstock":"Wood","Street":"8179 Starwood Dr #1","City":"Loves Park","State":"IL","Zip_Code":"61111"}},{"type":"Feature","id":65,"geometry":{"type":"Point","coordinates":[-9624437.82864545,4358765.79074147]},"properties":{"OBJECTID":65,"Name":"Family's Tree Service, Inc.","TELEPHONE":"(615) 452-3994","Email":null,"Website":"http://www.familystreeservice.com/services/ch","NAICS_Code":562920,"Infra_Type":"Wood Recycling Facility","Feedstock":"Wood","Street":"1308 Old Highway 109 N","City":"Gallatin","State":"TN","Zip_Code":"37066"}},{"type":"Feature","id":66,"geometry":{"type":"Point","coordinates":[-13658783.1850317,6047959.04972374]},"properties":{"OBJECTID":66,"Name":"Farmland Pets","TELEPHONE":"(360) 692-0415","Email":"Farmlandpets@hotmail.com","Website":"http://www.farmlandpets.com/","NAICS_Code":562920,"Infra_Type":"Wood Recycling Facility","Feedstock":"Wood","Street":"9000 Silverdale Way NE","City":"Silverdale","State":"WA","Zip_Code":"98383"}},{"type":"Feature","id":67,"geometry":{"type":"Point","coordinates":[-9816853.90211402,5158243.22949603]},"properties":{"OBJECTID":67,"Name":"Forest Trails Stable","TELEPHONE":"(630) 837-9852","Email":"foresttrails@comcast.net","Website":"http://www.foresttrailsstable.com/pb/wp_4d360","NAICS_Code":562920,"Infra_Type":"Wood Recycling Facility","Feedstock":"Wood","Street":"600 S. Bartlett Road","City":"Bartlett","State":"IL","Zip_Code":"60103"}},{"type":"Feature","id":68,"geometry":{"type":"Point","coordinates":[-9335530.79665089,3975063.06514501]},"properties":{"OBJECTID":68,"Name":"GA Wigglers Worm Farm","TELEPHONE":null,"Email":null,"Website":"http://www.gawigglers.com/","NAICS_Code":562920,"Infra_Type":"Wood Recycling Facility","Feedstock":"Wood","Street":"PO Box 2237","City":"Covington","State":"GA","Zip_Code":"30015"}},{"type":"Feature","id":69,"geometry":{"type":"Point","coordinates":[-9805759.01893367,5144867.7602394]},"properties":{"OBJECTID":69,"Name":"Golden Guernsey of Illinois","TELEPHONE":"(608) 449-5491","Email":"kellyboge@gmail.com","Website":"http://www.iloverawmilk.com/","NAICS_Code":562920,"Infra_Type":"Wood Recycling Facility","Feedstock":"Wood","Street":"23w554 Trails End Rd.","City":"Carol Stream","State":"IL","Zip_Code":"60188"}},{"type":"Feature","id":70,"geometry":{"type":"Point","coordinates":[-13592479.9599607,6083208.44230539]},"properties":{"OBJECTID":70,"Name":"Graystone Stables & Equestrian Center","TELEPHONE":"(360) 668-9722","Email":"graystonestables@yahoo.com","Website":"http://www.graystonestable.com/category/board","NAICS_Code":562920,"Infra_Type":"Wood Recycling Facility","Feedstock":"Wood","Street":"15231 State Street","City":"Snohomish","State":"WA","Zip_Code":"98296"}},{"type":"Feature","id":71,"geometry":{"type":"Point","coordinates":[-8020979.52586637,5418130.62367208]},"properties":{"OBJECTID":71,"Name":"Great Northern Barns","TELEPHONE":"(603) 523-7134","Email":"info@greatnorthernbarns.com","Website":"http://greatnorthernbarns.com/","NAICS_Code":562920,"Infra_Type":"Wood Recycling Facility","Feedstock":"Wood","Street":"182 Grafton Tpk","City":"Canaan","State":"NH","Zip_Code":"03741"}},{"type":"Feature","id":72,"geometry":{"type":"Point","coordinates":[-10954066.9902884,3433743.44445321]},"properties":{"OBJECTID":72,"Name":"Green Wood Milling Company","TELEPHONE":"(210) 544-5778","Email":null,"Website":"http://www.greenwoodmilling.com/services","NAICS_Code":562920,"Infra_Type":"Wood Recycling Facility","Feedstock":"Wood","Street":"6910 NE Loop 410 Building #3","City":"San Antonio","State":"TX","Zip_Code":"78219"}},{"type":"Feature","id":73,"geometry":{"type":"Point","coordinates":[-10530033.0142214,4719168.59200425]},"properties":{"OBJECTID":73,"Name":"Hendrickson Tree Care","TELEPHONE":"(816) 523-1181","Email":null,"Website":"http://www.hendricksontreecare.com/urban-lumb","NAICS_Code":562920,"Infra_Type":"Wood Recycling Facility","Feedstock":"Wood","Street":"210 West 80th Terrace","City":"Kansas City","State":"MO","Zip_Code":"64114"}},{"type":"Feature","id":74,"geometry":{"type":"Point","coordinates":[-9132277.43829577,5027453.1089657]},"properties":{"OBJECTID":74,"Name":"Hidden Oak Stable","TELEPHONE":"(216) 406-5943","Email":"info@hiddenoakstable.net","Website":"http://www.hiddenoakstable.net/home.htm","NAICS_Code":562920,"Infra_Type":"Wood Recycling Facility","Feedstock":"Wood","Street":"9607 Chatham Road","City":"Spencer","State":"OH","Zip_Code":"44275"}},{"type":"Feature","id":75,"geometry":{"type":"Point","coordinates":[-9097011.86419578,5047410.02356518]},"properties":{"OBJECTID":75,"Name":"Horsehaven Stables","TELEPHONE":"(330) 241-2256","Email":"HorsehavenOhio@Gmail.com","Website":"http://www.horsehavenohio.com/horse-boarding/","NAICS_Code":562920,"Infra_Type":"Wood Recycling Facility","Feedstock":"Wood","Street":"954 Center Road","City":"Hinckley","State":"OH","Zip_Code":"44233"}},{"type":"Feature","id":76,"geometry":{"type":"Point","coordinates":[-8509446.11921611,5315196.99861628]},"properties":{"OBJECTID":76,"Name":"Hourigan's Dairy Farm","TELEPHONE":"(315) 689-1203","Email":null,"Website":"http://www.byrnedairy.com/our-farmers/houriga","NAICS_Code":562920,"Infra_Type":"Wood Recycling Facility","Feedstock":"Wood","Street":"878 Gorham Road","City":"Elbridge","State":"NY","Zip_Code":"13060"}},{"type":"Feature","id":77,"geometry":{"type":"Point","coordinates":[-8315284.65584511,4921855.99519511]},"properties":{"OBJECTID":77,"Name":"Hunter Farms","TELEPHONE":"(609) 924-2932","Email":"ahphilbrick@yahoo.com","Website":"http://www.hunterfarms.us/facility.html","NAICS_Code":562920,"Infra_Type":"Wood Recycling Facility","Feedstock":"Wood","Street":"1315 The Great Road","City":"Princeton","State":"NJ","Zip_Code":"08540"}},{"type":"Feature","id":78,"geometry":{"type":"Point","coordinates":[-9048910.60771346,3797672.16957415]},"properties":{"OBJECTID":78,"Name":"Iron Horses Riding Stable","TELEPHONE":"(912) 547-2782","Email":"info@ironhorsesridingstable.com","Website":"http://www.ironhorsesridingstable.com/our-ser","NAICS_Code":562920,"Infra_Type":"Wood Recycling Facility","Feedstock":"Wood","Street":"111 Oaklawn Drive","City":"Rincon","State":"GA","Zip_Code":"31326"}},{"type":"Feature","id":79,"geometry":{"type":"Point","coordinates":[-7967094.91990969,5197767.61990272]},"properties":{"OBJECTID":79,"Name":"J B Sawmill and Landclearing, Inc.","TELEPHONE":"(508) 435-6877","Email":"info@jbsawmill.com","Website":"http://www.jbsawmill.com/","NAICS_Code":562920,"Infra_Type":"Wood Recycling Facility","Feedstock":"Wood","Street":"36 Fruit St","City":"Hopkinton","State":"MA","Zip_Code":"01748"}},{"type":"Feature","id":80,"geometry":{"type":"Point","coordinates":[-9681407.35729992,4365109.78889226]},"properties":{"OBJECTID":80,"Name":"JML Farms","TELEPHONE":"(615) 714-6600","Email":"Info@JMLFarms.com","Website":"http://www.jmlfarms.com/boarding.html","NAICS_Code":562920,"Infra_Type":"Wood Recycling Facility","Feedstock":"Wood","Street":"3220 Lipscomb Road","City":"Springfield","State":"TN","Zip_Code":"37172"}},{"type":"Feature","id":81,"geometry":{"type":"Point","coordinates":[-9770574.3792555,5123043.94050644]},"properties":{"OBJECTID":81,"Name":"John's Pro-Tree Service","TELEPHONE":"(708) 424-5885","Email":null,"Website":"http://www.johnsprotreeserviceinc.com/","NAICS_Code":562920,"Infra_Type":"Wood Recycling Facility","Feedstock":"Wood","Street":"8009 Austin Ave","City":"Burbank","State":"IL","Zip_Code":"60459"}},{"type":"Feature","id":82,"geometry":{"type":"Point","coordinates":[-9853668.14713838,4971984.64263808]},"properties":{"OBJECTID":82,"Name":"Kilgus Farmstead","TELEPHONE":"(815) 692-6080","Email":null,"Website":"http://www.kilgusfarmstead.com/","NAICS_Code":562920,"Infra_Type":"Wood Recycling Facility","Feedstock":"Wood","Street":"21471 E 670 N. Rd","City":"Fairbury","State":"IL","Zip_Code":"61739"}},{"type":"Feature","id":83,"geometry":{"type":"Point","coordinates":[-10848165.0844353,3440004.75660012]},"properties":{"OBJECTID":83,"Name":"Kitchen Pride Mushroom Farms, Inc.","TELEPHONE":"(830) 540-4516","Email":null,"Website":"http://www.kitchenpride.com/our-mushrooms.asp","NAICS_Code":562920,"Infra_Type":"Wood Recycling Facility","Feedstock":"Wood","Street":"PO Box 585","City":"Gonzales","State":"TX","Zip_Code":"78629"}},{"type":"Feature","id":84,"geometry":{"type":"Point","coordinates":[-8383524.9512229,4879104.98643245]},"properties":{"OBJECTID":84,"Name":"L & S Demolition Recycling","TELEPHONE":"(610) 828-5948","Email":null,"Website":"http://www.l-sdemorecycling.com/","NAICS_Code":562920,"Infra_Type":"Wood Recycling Facility","Feedstock":"Wood","Street":"884 Brook Road","City":"Conshohocken","State":"PA","Zip_Code":"19428"}},{"type":"Feature","id":85,"geometry":{"type":"Point","coordinates":[-9836470.50623741,5508864.99672876]},"properties":{"OBJECTID":85,"Name":"Landfill Reduction & Recycling","TELEPHONE":"(920) 319-8118","Email":"sales@landfillreduction.com","Website":"https://www.landfillreduction.com/home.html","NAICS_Code":562920,"Infra_Type":"Wood Recycling Facility","Feedstock":"Wood","Street":"3001 E Glendale Ave","City":"Appleton","State":"WI","Zip_Code":"54911"}},{"type":"Feature","id":86,"geometry":{"type":"Point","coordinates":[-8763011.42345222,5338113.14368206]},"properties":{"OBJECTID":86,"Name":"Lockport Recycling","TELEPHONE":"(716) 514-4594","Email":null,"Website":"http://lockportrecycling.com/","NAICS_Code":562920,"Infra_Type":"Wood Recycling Facility","Feedstock":"Wood","Street":"178 Oakhurst St","City":"Lockport","State":"NY","Zip_Code":"14094"}},{"type":"Feature","id":87,"geometry":{"type":"Point","coordinates":[-7961308.31402387,5233568.22768522]},"properties":{"OBJECTID":87,"Name":"Manning Tree & Landscape, Inc.","TELEPHONE":"(978) 263-6864","Email":null,"Website":"http://www.manningtreelandscape.com/services-","NAICS_Code":562920,"Infra_Type":"Wood Recycling Facility","Feedstock":"Wood","Street":"807 Massachusetts Ave","City":"Boxborough","State":"MA","Zip_Code":"01719"}},{"type":"Feature","id":88,"geometry":{"type":"Point","coordinates":[-8462496.67133815,4879944.32668466]},"properties":{"OBJECTID":88,"Name":"Martin Tree Service LLC","TELEPHONE":"(717) 354-5939","Email":"info@martintreeservice.com","Website":"http://www.martintreeservice.com/services.php","NAICS_Code":562920,"Infra_Type":"Wood Recycling Facility","Feedstock":"Wood","Street":"1300 Briertown Road","City":"East Earl","State":"PA","Zip_Code":"17519"}},{"type":"Feature","id":89,"geometry":{"type":"Point","coordinates":[-13581326.4147201,6034824.35447603]},"properties":{"OBJECTID":89,"Name":"Matt's Tree Service LLC","TELEPHONE":"(425) 369-8733","Email":"mattstreeserv@gmail.com","Website":"http://mattstreeservice-llc.com/2014/01/27/ch","NAICS_Code":562920,"Infra_Type":"Wood Recycling Facility","Feedstock":"Wood","Street":"4580 Klahanie Drive SE #261","City":"Issaquah","State":"WA","Zip_Code":"98029"}},{"type":"Feature","id":90,"geometry":{"type":"Point","coordinates":[-7902142.03257537,5108196.01080017]},"properties":{"OBJECTID":90,"Name":"Melisa's Pet Depot","TELEPHONE":"(508) 996-0088","Email":"mellisas@petdepot.com","Website":"http://mellisaspetdepot.com/","NAICS_Code":562920,"Infra_Type":"Wood Recycling Facility","Feedstock":"Wood","Street":"83 Faunce Corner Mall Road Suite A","City":"North Dartmouth","State":"MA","Zip_Code":"02747"}},{"type":"Feature","id":91,"geometry":{"type":"Point","coordinates":[-9338065.29215041,4305638.2777659]},"properties":{"OBJECTID":91,"Name":"Misty's Pet Depot","TELEPHONE":"(865) 523-9763","Email":"http://mistyspetdepot.com/","Website":"http://mistyspetdepot.com/","NAICS_Code":562920,"Infra_Type":"Wood Recycling Facility","Feedstock":"Wood","Street":"5451 Washington Pike","City":"Knoxville","State":"TN","Zip_Code":"37918"}},{"type":"Feature","id":92,"geometry":{"type":"Point","coordinates":[-13602299.7854269,5997371.38216982]},"properties":{"OBJECTID":92,"Name":"Morris's Shadow Mountain Stables","TELEPHONE":"(253) 939-5660","Email":"morrisshadowmt@aol.com","Website":"http://www.morrisshadowmt.com/fullcare_boardi","NAICS_Code":562920,"Infra_Type":"Wood Recycling Facility","Feedstock":"Wood","Street":"29502 112th Avenue SE","City":"Auburn","State":"WA","Zip_Code":"98092"}},{"type":"Feature","id":93,"geometry":{"type":"Point","coordinates":[-9657182.2835538,4316374.52100075]},"properties":{"OBJECTID":93,"Name":"Nashville Pet Products Center","TELEPHONE":"(615) 242-2223","Email":null,"Website":"http://www.nashvillepetproducts.com/About.htm","NAICS_Code":562920,"Infra_Type":"Wood Recycling Facility","Feedstock":"Wood","Street":"2621 Cruzen St","City":"Nashville","State":"TN","Zip_Code":"37211"}},{"type":"Feature","id":94,"geometry":{"type":"Point","coordinates":[-9282173.69492132,4023695.32652029]},"properties":{"OBJECTID":94,"Name":"New Urban Forestry","TELEPHONE":"(706) 621-9335","Email":null,"Website":"http://newurbanforestry.com/sustainable-lumbe","NAICS_Code":562920,"Infra_Type":"Wood Recycling Facility","Feedstock":"Wood","Street":"PO Box 82036","City":"Athens","State":"GA","Zip_Code":"30601"}},{"type":"Feature","id":95,"geometry":{"type":"Point","coordinates":[-8198315.689598,4966143.07293916]},"properties":{"OBJECTID":95,"Name":"New York Equestrian Center","TELEPHONE":"(516) 486-9673","Email":"info@mynyec.com","Website":"http://www.mynyec.com/boarders.php","NAICS_Code":562920,"Infra_Type":"Wood Recycling Facility","Feedstock":"Wood","Street":"633 Eagle Avenue","City":"West Hempstead","State":"NY","Zip_Code":"11552"}},{"type":"Feature","id":96,"geometry":{"type":"Point","coordinates":[-8701320.36081456,4639477.57687916]},"properties":{"OBJECTID":96,"Name":"North Cove Mushrooms","TELEPHONE":"(919) 649-7158","Email":null,"Website":"http://northcovemushrooms.com/","NAICS_Code":562920,"Infra_Type":"Wood Recycling Facility","Feedstock":"Wood","Street":"Cook Mountain Drive","City":"Brightwood","State":"VA","Zip_Code":"22715"}},{"type":"Feature","id":97,"geometry":{"type":"Point","coordinates":[-8863045.45803616,4843279.41653072]},"properties":{"OBJECTID":97,"Name":"Old Mill Farms, Inc.","TELEPHONE":"(724) 984-2426","Email":"info@gypsydrumhorses.com","Website":"http://www.gypsydrumhorses.com/","NAICS_Code":562920,"Infra_Type":"Wood Recycling Facility","Feedstock":"Wood","Street":"PO Box 246","City":"Chalk Hill","State":"PA","Zip_Code":"15421"}},{"type":"Feature","id":98,"geometry":{"type":"Point","coordinates":[-8309447.9534743,5032448.68832086]},"properties":{"OBJECTID":98,"Name":"On Course Riding Academy","TELEPHONE":"(973) 875-8780","Email":null,"Website":"http://www.oncourseriding.com/boarding.htm","NAICS_Code":562920,"Infra_Type":"Wood Recycling Facility","Feedstock":"Wood","Street":"210 Beaver Run Road","City":"Lafayette","State":"NJ","Zip_Code":"07848"}},{"type":"Feature","id":99,"geometry":{"type":"Point","coordinates":[-12973085.6754258,6158297.34294824]},"properties":{"OBJECTID":99,"Name":"Pampurred Pets","TELEPHONE":"(208) 263-0777","Email":"pampurrredpets@sandpointmail.com","Website":null,"NAICS_Code":562920,"Infra_Type":"Wood Recycling Facility","Feedstock":"Wood","Street":"201 N. Triangle Drive","City":"Ponderay","State":"ID","Zip_Code":"83852"}},{"type":"Feature","id":100,"geometry":{"type":"Point","coordinates":[-8596705.45321378,4779903.94632329]},"properties":{"OBJECTID":100,"Name":"Paradise Stables LLC","TELEPHONE":"(301) 865-4800","Email":"paradisestablesllc@yahoo.com","Website":"http://www.paradisestables.com/horse_boarding","NAICS_Code":562920,"Infra_Type":"Wood Recycling Facility","Feedstock":"Wood","Street":"6250 Detrick Road","City":"Mt Airy","State":"MD","Zip_Code":"21771"}},{"type":"Feature","id":101,"geometry":{"type":"Point","coordinates":[-8248847.69396666,5117647.03544558]},"properties":{"OBJECTID":101,"Name":"Payne Farm Too","TELEPHONE":"(845) 255-0177","Email":null,"Website":"http://www.paynefarmtoo.com/boarding/","NAICS_Code":562920,"Infra_Type":"Wood Recycling Facility","Feedstock":"Wood","Street":"125 Dubois Road","City":"New Paltz","State":"NY","Zip_Code":"12561"}},{"type":"Feature","id":102,"geometry":{"type":"Point","coordinates":[-9625079.13643275,4230094.78436989]},"properties":{"OBJECTID":102,"Name":"Pet Planet","TELEPHONE":"(931) 735-6600","Email":"http://www.petplanettn.com/","Website":"http://www.petplanettn.com/","NAICS_Code":562920,"Infra_Type":"Wood Recycling Facility","Feedstock":"Wood","Street":"200 1/2 Lane Parkway","City":"Shelbyville","State":"TN","Zip_Code":"37160"}},{"type":"Feature","id":103,"geometry":{"type":"Point","coordinates":[-10105957.7405119,4689043.9643407]},"properties":{"OBJECTID":103,"Name":"Petland","TELEPHONE":"(636) 695-4503","Email":null,"Website":"http://www.petlandstl.com/","NAICS_Code":562920,"Infra_Type":"Wood Recycling Facility","Feedstock":"Wood","Street":"6131 Ronald Reagan Drive","City":"Lake St. Louis","State":"MO","Zip_Code":"63367"}},{"type":"Feature","id":104,"geometry":{"type":"Point","coordinates":[-10385823.512755,4456296.29279299]},"properties":{"OBJECTID":104,"Name":"Pets Way","TELEPHONE":"(417) 886-2743","Email":null,"Website":"http://www.petsway.com/about_us","NAICS_Code":562920,"Infra_Type":"Wood Recycling Facility","Feedstock":"Wood","Street":"5009 S. Campbell","City":"Springfield","State":"MO","Zip_Code":"65810"}},{"type":"Feature","id":105,"geometry":{"type":"Point","coordinates":[-12467879.7092533,3950769.84055911]},"properties":{"OBJECTID":105,"Name":"Phoenix Trim A Tree","TELEPHONE":"(480) 962-0701","Email":"phxtrimatree@hotmail.com","Website":"http://www.phoenixtrimatree.com/wood_grinding","NAICS_Code":562920,"Infra_Type":"Wood Recycling Facility","Feedstock":"Wood","Street":"3722 E Superior Ave","City":"Phoenix","State":"AZ","Zip_Code":"85040"}},{"type":"Feature","id":106,"geometry":{"type":"Point","coordinates":[-12940138.1722509,5417795.15256931]},"properties":{"OBJECTID":106,"Name":"Pierce Park Stables","TELEPHONE":"(208) 853-6153","Email":null,"Website":"http://www.pierceparkstables.com/node/4","NAICS_Code":562920,"Infra_Type":"Wood Recycling Facility","Feedstock":"Wood","Street":"9400 N Pierce Park Rd","City":"Boise","State":"ID","Zip_Code":"83714"}},{"type":"Feature","id":107,"geometry":{"type":"Point","coordinates":[-8626036.46464594,4741794.05723132]},"properties":{"OBJECTID":107,"Name":"Potomac Riverside Farm","TELEPHONE":"(301) 972-8187","Email":null,"Website":"http://potomacriversidestables.com/boarding/","NAICS_Code":562920,"Infra_Type":"Wood Recycling Facility","Feedstock":"Wood","Street":"17224 Elmer School Road","City":"Dickerson","State":"MD","Zip_Code":"20842"}},{"type":"Feature","id":108,"geometry":{"type":"Point","coordinates":[-10005356.095552,4763669.51853004]},"properties":{"OBJECTID":108,"Name":"Prairie Farms","TELEPHONE":"(800) 654-2547","Email":"info@prairiefarms.com","Website":"http://www.prairiefarms.com/contact-us.aspx","NAICS_Code":562920,"Infra_Type":"Wood Recycling Facility","Feedstock":"Wood","Street":"1100 Broadway","City":"Carlinville","State":"IL","Zip_Code":"62626"}},{"type":"Feature","id":109,"geometry":{"type":"Point","coordinates":[-12486933.7099758,3966941.88592393]},"properties":{"OBJECTID":109,"Name":"Pratt's Pets","TELEPHONE":"(623) 939-3326","Email":null,"Website":"http://prattspets.com/index.php?option=com_fr","NAICS_Code":562920,"Infra_Type":"Wood Recycling Facility","Feedstock":"Wood","Street":"5237 W. Glendale Ave.","City":"Glendale","State":"AZ","Zip_Code":"85301"}},{"type":"Feature","id":110,"geometry":{"type":"Point","coordinates":[-13565811.2655273,4483001.57391155]},"properties":{"OBJECTID":110,"Name":"Premier Recycle Company","TELEPHONE":"(408) 297-7910","Email":"danielle@premierrecycle.com","Website":"http://www.premierrecycle.com/","NAICS_Code":562920,"Infra_Type":"Wood Recycling Facility","Feedstock":"Wood","Street":"348 Phelan Ave","City":"San Jose","State":"CA","Zip_Code":"95112"}},{"type":"Feature","id":111,"geometry":{"type":"Point","coordinates":[-9781272.47476139,5201725.92850544]},"properties":{"OBJECTID":111,"Name":"Sexton Properties R.P., LLC","TELEPHONE":"(224) 212-1250","Email":"tdaniels@sextoncompany.net","Website":"http://www.sextonrecycling.com/","NAICS_Code":562920,"Infra_Type":"Wood Recycling Facility","Feedstock":"Wood","Street":"49 Sherwood Terrace Ste A","City":"Lake Bluff","State":"IL","Zip_Code":"60044"}},{"type":"Feature","id":112,"geometry":{"type":"Point","coordinates":[-8525467.45111188,4765556.91120823]},"properties":{"OBJECTID":112,"Name":"Smalltimore Homes","TELEPHONE":"(443) 804-1855","Email":"info@smalltimorehomes.org","Website":"https://www.smalltimorehomes.org","NAICS_Code":562920,"Infra_Type":"Wood Recycling Facility","Feedstock":"Wood","Street":"E Preston St","City":"Baltimore","State":"MD","Zip_Code":"21213"}},{"type":"Feature","id":113,"geometry":{"type":"Point","coordinates":[-9577822.45686148,5111478.69014395]},"properties":{"OBJECTID":113,"Name":"Soil Solutions - Elkhart","TELEPHONE":"(574) 389-0667","Email":"mbaum@soilsolutionsco.com","Website":"http://soilsolutionsco.com/SS_of_Elkhart__LLC","NAICS_Code":562920,"Infra_Type":"Wood Recycling Facility","Feedstock":"Wood","Street":"29861 Old US 33","City":"Elkhart","State":"ID","Zip_Code":"46516"}},{"type":"Feature","id":114,"geometry":{"type":"Point","coordinates":[-9557117.92205069,5101139.02621336]},"properties":{"OBJECTID":114,"Name":"Soil Solutions - Goshen","TELEPHONE":"(574) 533-6200","Email":null,"Website":"http://soilsolutionsco.com/Goshen_Environment","NAICS_Code":562920,"Infra_Type":"Wood Recycling Facility","Feedstock":"Wood","Street":"20100 County Road 19","City":"Goshen","State":"ID","Zip_Code":"46528"}},{"type":"Feature","id":115,"geometry":{"type":"Point","coordinates":[-9503485.63666531,5005885.97429424]},"properties":{"OBJECTID":115,"Name":"Soil Solutions Company","TELEPHONE":"(260) 672-3300","Email":null,"Website":"http://soilsolutionsco.com/","NAICS_Code":562920,"Infra_Type":"Wood Recycling Facility","Feedstock":"Wood","Street":"8731 N. US 24 E","City":"Roanoke","State":"ID","Zip_Code":"46783"}},{"type":"Feature","id":116,"geometry":{"type":"Point","coordinates":[-8479116.55579459,4833045.80219519]},"properties":{"OBJECTID":116,"Name":"The Barnyard Boys","TELEPHONE":"(717) 548-5000","Email":"info@barnyardboys.com","Website":"http://www.barnyardboys.com/","NAICS_Code":562920,"Infra_Type":"Wood Recycling Facility","Feedstock":"Wood","Street":"740 Nottingham Road","City":"Peach Bottom","State":"PA","Zip_Code":"17563"}},{"type":"Feature","id":117,"geometry":{"type":"Point","coordinates":[-8510809.32397693,4407750.34113804]},"properties":{"OBJECTID":117,"Name":"Tidewater Green Corp.","TELEPHONE":"(757) 487-4736","Email":"tidewatergreen@gmail.com","Website":"http://tidewatergreen.com/","NAICS_Code":562920,"Infra_Type":"Wood Recycling Facility","Feedstock":"Wood","Street":"5304 W. Military Hwy.","City":"Chesapeake","State":"VA","Zip_Code":"23321"}},{"type":"Feature","id":118,"geometry":{"type":"Point","coordinates":[-9784423.2161601,5220407.50066615]},"properties":{"OBJECTID":118,"Name":"TKG Environmental Services Group, LLC","TELEPHONE":"(847) 051-1400","Email":"office@tkgcompanies.com","Website":"http://tkgcompanies.com/","NAICS_Code":562920,"Infra_Type":"Wood Recycling Facility","Feedstock":"Wood","Street":"3804 Hawthorn Ct","City":"Waukegan","State":"IL","Zip_Code":"60087"}},{"type":"Feature","id":119,"geometry":{"type":"Point","coordinates":[-13590930.8411631,6078176.7887959]},"properties":{"OBJECTID":119,"Name":"United Recycling & Container","TELEPHONE":"(360) 668-4300","Email":"bruce@unitedrecyclingco.com","Website":"http://www.unitedrecyclingco.com/","NAICS_Code":562920,"Infra_Type":"Wood Recycling Facility","Feedstock":"Wood","Street":"18827 Yew Way","City":"Snohomish","State":"WA","Zip_Code":"98296"}},{"type":"Feature","id":120,"geometry":{"type":"Point","coordinates":[-9789407.97037322,5317638.06491917]},"properties":{"OBJECTID":120,"Name":"Wastecap Resource Solutions Inc.","TELEPHONE":"(414) 961-1100","Email":"warehouse@wastecap.org","Website":"http://wastecap.org/","NAICS_Code":562920,"Infra_Type":"Wood Recycling Facility","Feedstock":"Wood","Street":"2123 W Michigan St Suite 100","City":"Milwaukee","State":"WI","Zip_Code":"53233"}},{"type":"Feature","id":121,"geometry":{"type":"Point","coordinates":[-8038657.0591169,5118167.48072226]},"properties":{"OBJECTID":121,"Name":"Willimantic Waste Paper Co., Inc.","TELEPHONE":"(860) 423-4527","Email":"tdevivo@williwaste.com","Website":"http://www.williwaste.com/","NAICS_Code":562920,"Infra_Type":"Wood Recycling Facility","Feedstock":"Wood","Street":"PO Box 23910","City":"Willimantic","State":"CT","Zip_Code":"06226"}},{"type":"Feature","id":122,"geometry":{"type":"Point","coordinates":[-8826421.46221393,4563447.75320526]},"properties":{"OBJECTID":122,"Name":"Woodlore, LLC","TELEPHONE":"(540) 460-9469","Email":"Shawn@WoodloreCreations.com","Website":"https://www.woodlorecreations.com/","NAICS_Code":562920,"Infra_Type":"Wood Recycling Facility","Feedstock":"Wood","Street":"249 Sterrett Rd","City":"Fairfield","State":"VA","Zip_Code":"24435"}}]}